var publicSchools = {
"type": "FeatureCollection",
"crs": { "type": "name", "properties": { "name": "urn:ogc:def:crs:OGC:1.3:CRS84" } },
"features": [
{ "type": "Feature", "properties": { "School": "Alameda County Community" }, "geometry": { "type": "Point", "coordinates": [ -122.097138, 37.658212 ] } },
{ "type": "Feature", "properties": { "School": "Alameda County Juvenile Hall/Court" }, "geometry": { "type": "Point", "coordinates": [ -122.111731, 37.712878 ] } },
{ "type": "Feature", "properties": { "School": "Alameda County Special Education" }, "geometry": { "type": "Point", "coordinates": [ -122.097138, 37.658212 ] } },
{ "type": "Feature", "properties": { "School": "Epic Charter" }, "geometry": { "type": "Point", "coordinates": [ -122.229602, 37.777049 ] } },
{ "type": "Feature", "properties": { "School": "Alameda Adult" }, "geometry": { "type": "Point", "coordinates": [ -122.247043, 37.76421 ] } },
{ "type": "Feature", "properties": { "School": "Alameda High" }, "geometry": { "type": "Point", "coordinates": [ -122.245935, 37.764958 ] } },
{ "type": "Feature", "properties": { "School": "Alameda Science and Technology Institute" }, "geometry": { "type": "Point", "coordinates": [ -122.279307, 37.780753 ] } },
{ "type": "Feature", "properties": { "School": "Alameda Unified Special Education" }, "geometry": { "type": "Point", "coordinates": [ -122.270085, 37.782212 ] } },
{ "type": "Feature", "properties": { "School": "Amelia Earhart Elementary" }, "geometry": { "type": "Point", "coordinates": [ -122.239284, 37.745289 ] } },
{ "type": "Feature", "properties": { "School": "Bay Farm" }, "geometry": { "type": "Point", "coordinates": [ -122.251957, 37.738998 ] } },
{ "type": "Feature", "properties": { "School": "Edison Elementary" }, "geometry": { "type": "Point", "coordinates": [ -122.234216, 37.765083 ] } },
{ "type": "Feature", "properties": { "School": "Encinal Junior/Senior High" }, "geometry": { "type": "Point", "coordinates": [ -122.289009, 37.772765 ] } },
{ "type": "Feature", "properties": { "School": "Frank Otis Elementary" }, "geometry": { "type": "Point", "coordinates": [ -122.237997, 37.754029 ] } },
{ "type": "Feature", "properties": { "School": "Franklin Elementary" }, "geometry": { "type": "Point", "coordinates": [ -122.261602, 37.769036 ] } },
{ "type": "Feature", "properties": { "School": "Island High (Continuation)" }, "geometry": { "type": "Point", "coordinates": [ -122.281904, 37.776017 ] } },
{ "type": "Feature", "properties": { "School": "Lincoln Middle" }, "geometry": { "type": "Point", "coordinates": [ -122.232765, 37.752242 ] } },
{ "type": "Feature", "properties": { "School": "Love Elementary" }, "geometry": { "type": "Point", "coordinates": [ -122.251069, 37.769332 ] } },
{ "type": "Feature", "properties": { "School": "Maya Lin" }, "geometry": { "type": "Point", "coordinates": [ -122.271459, 37.772663 ] } },
{ "type": "Feature", "properties": { "School": "Ruby Bridges Elementary" }, "geometry": { "type": "Point", "coordinates": [ -122.286146, 37.781834 ] } },
{ "type": "Feature", "properties": { "School": "Will C. Wood Middle" }, "geometry": { "type": "Point", "coordinates": [ -122.26192, 37.763031 ] } },
{ "type": "Feature", "properties": { "School": "William G. Paden Elementary" }, "geometry": { "type": "Point", "coordinates": [ -122.284469, 37.771566 ] } },
{ "type": "Feature", "properties": { "School": "Albany High" }, "geometry": { "type": "Point", "coordinates": [ -122.292572, 37.896661 ] } },
{ "type": "Feature", "properties": { "School": "Albany Middle" }, "geometry": { "type": "Point", "coordinates": [ -122.295309, 37.897851 ] } },
{ "type": "Feature", "properties": { "School": "Cornell Elementary" }, "geometry": { "type": "Point", "coordinates": [ -122.295187, 37.889826 ] } },
{ "type": "Feature", "properties": { "School": "MacGregor High (Continuation)" }, "geometry": { "type": "Point", "coordinates": [ -122.292117, 37.89642 ] } },
{ "type": "Feature", "properties": { "School": "Marin Elementary" }, "geometry": { "type": "Point", "coordinates": [ -122.288171, 37.888559 ] } },
{ "type": "Feature", "properties": { "School": "Ocean View Elementary" }, "geometry": { "type": "Point", "coordinates": [ -122.30092, 37.887539 ] } },
{ "type": "Feature", "properties": { "School": "Berkeley Adult" }, "geometry": { "type": "Point", "coordinates": [ -122.291588, 37.873179 ] } },
{ "type": "Feature", "properties": { "School": "Berkeley Arts Magnet at Whittier" }, "geometry": { "type": "Point", "coordinates": [ -122.271231, 37.876919 ] } },
{ "type": "Feature", "properties": { "School": "Berkeley High" }, "geometry": { "type": "Point", "coordinates": [ -122.2712, 37.868913 ] } },
{ "type": "Feature", "properties": { "School": "Berkeley Independent Study K-8" }, "geometry": { "type": "Point", "coordinates": [ -122.270573, 37.859409 ] } },
{ "type": "Feature", "properties": { "School": "Berkeley Special Education Preschool" }, "geometry": { "type": "Point", "coordinates": [ -122.272834, 37.869954 ] } },
{ "type": "Feature", "properties": { "School": "Berkeley Technology Academy" }, "geometry": { "type": "Point", "coordinates": [ -122.27171, 37.85974 ] } },
{ "type": "Feature", "properties": { "School": "Cragmont Elementary" }, "geometry": { "type": "Point", "coordinates": [ -122.263555, 37.892673 ] } },
{ "type": "Feature", "properties": { "School": "Emerson Elementary" }, "geometry": { "type": "Point", "coordinates": [ -122.251112, 37.86149 ] } },
{ "type": "Feature", "properties": { "School": "John Muir Elementary" }, "geometry": { "type": "Point", "coordinates": [ -122.245936, 37.857194 ] } },
{ "type": "Feature", "properties": { "School": "Longfellow Arts and Technology Middle" }, "geometry": { "type": "Point", "coordinates": [ -122.280007, 37.858687 ] } },
{ "type": "Feature", "properties": { "School": "Malcolm X Elementary" }, "geometry": { "type": "Point", "coordinates": [ -122.273734, 37.8522 ] } },
{ "type": "Feature", "properties": { "School": "Martin Luther King Middle" }, "geometry": { "type": "Point", "coordinates": [ -122.277009, 37.881113 ] } },
{ "type": "Feature", "properties": { "School": "Oxford Elementary at West Campus" }, "geometry": { "type": "Point", "coordinates": [ -122.288516, 37.869063 ] } },
{ "type": "Feature", "properties": { "School": "Rosa Parks Environmental Science" }, "geometry": { "type": "Point", "coordinates": [ -122.294711, 37.865652 ] } },
{ "type": "Feature", "properties": { "School": "Ruth Acty Elementary" }, "geometry": { "type": "Point", "coordinates": [ -122.285216, 37.878921 ] } },
{ "type": "Feature", "properties": { "School": "Sylvia Mendez Elementary" }, "geometry": { "type": "Point", "coordinates": [ -122.261704, 37.858258 ] } },
{ "type": "Feature", "properties": { "School": "Thousand Oaks Elementary" }, "geometry": { "type": "Point", "coordinates": [ -122.280401, 37.893082 ] } },
{ "type": "Feature", "properties": { "School": "Washington Elementary" }, "geometry": { "type": "Point", "coordinates": [ -122.272571, 37.866959 ] } },
{ "type": "Feature", "properties": { "School": "Willard Middle" }, "geometry": { "type": "Point", "coordinates": [ -122.258628, 37.859666 ] } },
{ "type": "Feature", "properties": { "School": "California School for the Blind" }, "geometry": { "type": "Point", "coordinates": [ -121.96563, 37.562576 ] } },
{ "type": "Feature", "properties": { "School": "California School for the Deaf-Fremont" }, "geometry": { "type": "Point", "coordinates": [ -121.965519, 37.558956 ] } },
{ "type": "Feature", "properties": { "School": "Alma Preschool" }, "geometry": { "type": "Point", "coordinates": [ -122.070383, 37.707693 ] } },
{ "type": "Feature", "properties": { "School": "Canyon Middle" }, "geometry": { "type": "Point", "coordinates": [ -122.054261, 37.705772 ] } },
{ "type": "Feature", "properties": { "School": "Castro Valley Adult and Career Education" }, "geometry": { "type": "Point", "coordinates": [ -122.071185, 37.708006 ] } },
{ "type": "Feature", "properties": { "School": "Castro Valley Elementary" }, "geometry": { "type": "Point", "coordinates": [ -122.081025, 37.698047 ] } },
{ "type": "Feature", "properties": { "School": "Castro Valley High" }, "geometry": { "type": "Point", "coordinates": [ -122.078478, 37.705184 ] } },
{ "type": "Feature", "properties": { "School": "Castro Valley Virtual Academy" }, "geometry": { "type": "Point", "coordinates": [ -122.092224, 37.713501 ] } },
{ "type": "Feature", "properties": { "School": "Chabot Elementary" }, "geometry": { "type": "Point", "coordinates": [ -122.090125, 37.707084 ] } },
{ "type": "Feature", "properties": { "School": "Creekside Middle" }, "geometry": { "type": "Point", "coordinates": [ -122.061243, 37.699926 ] } },
{ "type": "Feature", "properties": { "School": "Independent Elementary" }, "geometry": { "type": "Point", "coordinates": [ -122.049754, 37.699109 ] } },
{ "type": "Feature", "properties": { "School": "Jensen Ranch Elementary" }, "geometry": { "type": "Point", "coordinates": [ -122.031229, 37.713125 ] } },
{ "type": "Feature", "properties": { "School": "Marshall Elementary" }, "geometry": { "type": "Point", "coordinates": [ -122.065737, 37.697794 ] } },
{ "type": "Feature", "properties": { "School": "Palomares Elementary" }, "geometry": { "type": "Point", "coordinates": [ -122.024806, 37.695582 ] } },
{ "type": "Feature", "properties": { "School": "Proctor Elementary" }, "geometry": { "type": "Point", "coordinates": [ -122.073666, 37.716742 ] } },
{ "type": "Feature", "properties": { "School": "Redwood Continuation High" }, "geometry": { "type": "Point", "coordinates": [ -122.093055, 37.7128 ] } },
{ "type": "Feature", "properties": { "School": "Roy A. Johnson High" }, "geometry": { "type": "Point", "coordinates": [ -122.092224, 37.713501 ] } },
{ "type": "Feature", "properties": { "School": "Stanton Elementary" }, "geometry": { "type": "Point", "coordinates": [ -122.093526, 37.699908 ] } },
{ "type": "Feature", "properties": { "School": "Vannoy Elementary" }, "geometry": { "type": "Point", "coordinates": [ -122.05868, 37.706636 ] } },
{ "type": "Feature", "properties": { "School": "Cottonwood Creek" }, "geometry": { "type": "Point", "coordinates": [ -121.847328, 37.710001 ] } },
{ "type": "Feature", "properties": { "School": "Dublin Adult Education" }, "geometry": { "type": "Point", "coordinates": [ -121.921465, 37.709542 ] } },
{ "type": "Feature", "properties": { "School": "Dublin Elementary" }, "geometry": { "type": "Point", "coordinates": [ -121.936509, 37.715023 ] } },
{ "type": "Feature", "properties": { "School": "Dublin High" }, "geometry": { "type": "Point", "coordinates": [ -121.926391, 37.720996 ] } },
{ "type": "Feature", "properties": { "School": "Dublin Unified Preschool" }, "geometry": { "type": "Point", "coordinates": [ -121.936512, 37.715017 ] } },
{ "type": "Feature", "properties": { "School": "Dublin Unified Transition Program" }, "geometry": { "type": "Point", "coordinates": [ -121.921082, 37.709575 ] } },
{ "type": "Feature", "properties": { "School": "Eleanor Murray Fallon" }, "geometry": { "type": "Point", "coordinates": [ -121.865893, 37.71566 ] } },
{ "type": "Feature", "properties": { "School": "Emerald High School" }, "geometry": { "type": "Point", "coordinates": [ -121.86386, 37.708733 ] } },
{ "type": "Feature", "properties": { "School": "Frederiksen Elementary" }, "geometry": { "type": "Point", "coordinates": [ -121.921957, 37.715077 ] } },
{ "type": "Feature", "properties": { "School": "Harold William Kolb" }, "geometry": { "type": "Point", "coordinates": [ -121.858704, 37.71193 ] } },
{ "type": "Feature", "properties": { "School": "J. M. Amador Elementary" }, "geometry": { "type": "Point", "coordinates": [ -121.845659, 37.717296 ] } },
{ "type": "Feature", "properties": { "School": "James Dougherty Elementary" }, "geometry": { "type": "Point", "coordinates": [ -121.885121, 37.71039 ] } },
{ "type": "Feature", "properties": { "School": "John Green Elementary" }, "geometry": { "type": "Point", "coordinates": [ -121.8615, 37.7181 ] } },
{ "type": "Feature", "properties": { "School": "Murray Elementary" }, "geometry": { "type": "Point", "coordinates": [ -121.932981, 37.72154 ] } },
{ "type": "Feature", "properties": { "School": "Valley High (Continuation)" }, "geometry": { "type": "Point", "coordinates": [ -121.921644, 37.720977 ] } },
{ "type": "Feature", "properties": { "School": "Wells Middle" }, "geometry": { "type": "Point", "coordinates": [ -121.9188, 37.712563 ] } },
{ "type": "Feature", "properties": { "School": "York Alternative Learning Center" }, "geometry": { "type": "Point", "coordinates": [ -121.920222, 37.709368 ] } },
{ "type": "Feature", "properties": { "School": "Eden Area ROP" }, "geometry": { "type": "Point", "coordinates": [ -122.098744, 37.634543 ] } },
{ "type": "Feature", "properties": { "School": "Anna Yates Elementary" }, "geometry": { "type": "Point", "coordinates": [ -122.281826, 37.836311 ] } },
{ "type": "Feature", "properties": { "School": "Emery Secondary" }, "geometry": { "type": "Point", "coordinates": [ -122.282825, 37.835677 ] } },
{ "type": "Feature", "properties": { "School": "Emeryville Preschool Students" }, "geometry": { "type": "Point", "coordinates": [ -122.288433, 37.842955 ] } },
{ "type": "Feature", "properties": { "School": "American High" }, "geometry": { "type": "Point", "coordinates": [ -122.017475, 37.563645 ] } },
{ "type": "Feature", "properties": { "School": "Ardenwood Elementary" }, "geometry": { "type": "Point", "coordinates": [ -122.052052, 37.572796 ] } },
{ "type": "Feature", "properties": { "School": "Brier Elementary" }, "geometry": { "type": "Point", "coordinates": [ -121.984708, 37.539776 ] } },
{ "type": "Feature", "properties": { "School": "Brookvale Elementary" }, "geometry": { "type": "Point", "coordinates": [ -122.013996, 37.568768 ] } },
{ "type": "Feature", "properties": { "School": "Cabrillo Elementary" }, "geometry": { "type": "Point", "coordinates": [ -122.023339, 37.550826 ] } },
{ "type": "Feature", "properties": { "School": "Centerville Junior High" }, "geometry": { "type": "Point", "coordinates": [ -122.001905, 37.555648 ] } },
{ "type": "Feature", "properties": { "School": "E. M. Grimmer Elementary" }, "geometry": { "type": "Point", "coordinates": [ -121.951004, 37.519634 ] } },
{ "type": "Feature", "properties": { "School": "Forest Park Elementary" }, "geometry": { "type": "Point", "coordinates": [ -122.051885, 37.561214 ] } },
{ "type": "Feature", "properties": { "School": "Fred E. Weibel Elementary" }, "geometry": { "type": "Point", "coordinates": [ -121.92838, 37.507308 ] } },
{ "type": "Feature", "properties": { "School": "Fremont Adult and Continuing Education" }, "geometry": { "type": "Point", "coordinates": [ -121.990845, 37.538031 ] } },
{ "type": "Feature", "properties": { "School": "G. M. Walters Middle" }, "geometry": { "type": "Point", "coordinates": [ -121.985866, 37.5373 ] } },
{ "type": "Feature", "properties": { "School": "Glankler Early Learning Center" }, "geometry": { "type": "Point", "coordinates": [ -121.984388, 37.540113 ] } },
{ "type": "Feature", "properties": { "School": "Glenmoor Elementary" }, "geometry": { "type": "Point", "coordinates": [ -122.004876, 37.545703 ] } },
{ "type": "Feature", "properties": { "School": "Harvey Green Elementary" }, "geometry": { "type": "Point", "coordinates": [ -121.958105, 37.518135 ] } },
{ "type": "Feature", "properties": { "School": "Irvington High" }, "geometry": { "type": "Point", "coordinates": [ -121.969024, 37.522654 ] } },
{ "type": "Feature", "properties": { "School": "J. Haley Durham Elementary" }, "geometry": { "type": "Point", "coordinates": [ -121.966891, 37.542078 ] } },
{ "type": "Feature", "properties": { "School": "James Leitch Elementary" }, "geometry": { "type": "Point", "coordinates": [ -121.923286, 37.486506 ] } },
{ "type": "Feature", "properties": { "School": "John Blacow Elementary" }, "geometry": { "type": "Point", "coordinates": [ -121.977127, 37.527561 ] } },
{ "type": "Feature", "properties": { "School": "John F. Kennedy High" }, "geometry": { "type": "Point", "coordinates": [ -121.983122, 37.528399 ] } },
{ "type": "Feature", "properties": { "School": "John G. Mattos Elementary" }, "geometry": { "type": "Point", "coordinates": [ -122.011723, 37.538095 ] } },
{ "type": "Feature", "properties": { "School": "John Gomes Elementary" }, "geometry": { "type": "Point", "coordinates": [ -121.947617, 37.550361 ] } },
{ "type": "Feature", "properties": { "School": "John M. Horner Middle" }, "geometry": { "type": "Point", "coordinates": [ -121.964821, 37.529681 ] } },
{ "type": "Feature", "properties": { "School": "Joseph Azevada Elementary" }, "geometry": { "type": "Point", "coordinates": [ -121.994173, 37.53097 ] } },
{ "type": "Feature", "properties": { "School": "Joshua Chadbourne Elementary" }, "geometry": { "type": "Point", "coordinates": [ -121.939968, 37.542168 ] } },
{ "type": "Feature", "properties": { "School": "Lila Bringhurst Elementary" }, "geometry": { "type": "Point", "coordinates": [ -121.953086, 37.498517 ] } },
{ "type": "Feature", "properties": { "School": "Mission San Jose Elementary" }, "geometry": { "type": "Point", "coordinates": [ -121.921378, 37.528296 ] } },
{ "type": "Feature", "properties": { "School": "Mission San Jose High" }, "geometry": { "type": "Point", "coordinates": [ -121.931934, 37.54504 ] } },
{ "type": "Feature", "properties": { "School": "Mission Valley Elementary" }, "geometry": { "type": "Point", "coordinates": [ -121.947411, 37.535791 ] } },
{ "type": "Feature", "properties": { "School": "Niles Elementary" }, "geometry": { "type": "Point", "coordinates": [ -121.984464, 37.57705 ] } },
{ "type": "Feature", "properties": { "School": "O. N. Hirsch Elementary" }, "geometry": { "type": "Point", "coordinates": [ -121.962901, 37.528227 ] } },
{ "type": "Feature", "properties": { "School": "Oliveira Elementary" }, "geometry": { "type": "Point", "coordinates": [ -122.017715, 37.560394 ] } },
{ "type": "Feature", "properties": { "School": "Parkmont Elementary" }, "geometry": { "type": "Point", "coordinates": [ -121.984686, 37.560232 ] } },
{ "type": "Feature", "properties": { "School": "Patterson Elementary" }, "geometry": { "type": "Point", "coordinates": [ -122.030851, 37.56225 ] } },
{ "type": "Feature", "properties": { "School": "Robertson High (Continuation)" }, "geometry": { "type": "Point", "coordinates": [ -121.964928, 37.518632 ] } },
{ "type": "Feature", "properties": { "School": "Steven Millard Elementary" }, "geometry": { "type": "Point", "coordinates": [ -121.973972, 37.520062 ] } },
{ "type": "Feature", "properties": { "School": "Thornton Junior High" }, "geometry": { "type": "Point", "coordinates": [ -122.014543, 37.557124 ] } },
{ "type": "Feature", "properties": { "School": "Tom Maloney Elementary" }, "geometry": { "type": "Point", "coordinates": [ -121.998433, 37.545405 ] } },
{ "type": "Feature", "properties": { "School": "Vallejo Mill Elementary" }, "geometry": { "type": "Point", "coordinates": [ -121.959908, 37.574495 ] } },
{ "type": "Feature", "properties": { "School": "Vista Alternative" }, "geometry": { "type": "Point", "coordinates": [ -121.964928, 37.518632 ] } },
{ "type": "Feature", "properties": { "School": "Warm Springs Elementary" }, "geometry": { "type": "Point", "coordinates": [ -121.925345, 37.482877 ] } },
{ "type": "Feature", "properties": { "School": "Warwick Elementary" }, "geometry": { "type": "Point", "coordinates": [ -122.030485, 37.57651 ] } },
{ "type": "Feature", "properties": { "School": "Washington High" }, "geometry": { "type": "Point", "coordinates": [ -121.994844, 37.552082 ] } },
{ "type": "Feature", "properties": { "School": "William Hopkins Junior High" }, "geometry": { "type": "Point", "coordinates": [ -121.942424, 37.54702 ] } },
{ "type": "Feature", "properties": { "School": "Young Adult Program" }, "geometry": { "type": "Point", "coordinates": [ -121.992013, 37.53812 ] } },
{ "type": "Feature", "properties": { "School": "Anthony W. Ochoa Middle" }, "geometry": { "type": "Point", "coordinates": [ -122.109686, 37.638836 ] } },
{ "type": "Feature", "properties": { "School": "Brenkwitz High" }, "geometry": { "type": "Point", "coordinates": [ -122.098954, 37.671956 ] } },
{ "type": "Feature", "properties": { "School": "Bret Harte Middle" }, "geometry": { "type": "Point", "coordinates": [ -122.078992, 37.670265 ] } },
{ "type": "Feature", "properties": { "School": "Burbank Elementary" }, "geometry": { "type": "Point", "coordinates": [ -122.094274, 37.667925 ] } },
{ "type": "Feature", "properties": { "School": "Cesar Chavez Middle" }, "geometry": { "type": "Point", "coordinates": [ -122.062771, 37.63698 ] } },
{ "type": "Feature", "properties": { "School": "Cherryland Elementary" }, "geometry": { "type": "Point", "coordinates": [ -122.094795, 37.672198 ] } },
{ "type": "Feature", "properties": { "School": "East Avenue Elementary" }, "geometry": { "type": "Point", "coordinates": [ -122.054306, 37.67083 ] } },
{ "type": "Feature", "properties": { "School": "Eden Gardens Elementary" }, "geometry": { "type": "Point", "coordinates": [ -122.107215, 37.638076 ] } },
{ "type": "Feature", "properties": { "School": "Eldridge Elementary" }, "geometry": { "type": "Point", "coordinates": [ -122.0853, 37.63684 ] } },
{ "type": "Feature", "properties": { "School": "Fairview Elementary" }, "geometry": { "type": "Point", "coordinates": [ -122.052053, 37.680799 ] } },
{ "type": "Feature", "properties": { "School": "Faith Ringgold School of Arts and Science" }, "geometry": { "type": "Point", "coordinates": [ -122.07396, 37.676269 ] } },
{ "type": "Feature", "properties": { "School": "Glassbrook Elementary" }, "geometry": { "type": "Point", "coordinates": [ -122.080844, 37.640942 ] } },
{ "type": "Feature", "properties": { "School": "Harder Elementary" }, "geometry": { "type": "Point", "coordinates": [ -122.098462, 37.675672 ] } },
{ "type": "Feature", "properties": { "School": "Hayward Adult" }, "geometry": { "type": "Point", "coordinates": [ -122.098147, 37.672622 ] } },
{ "type": "Feature", "properties": { "School": "Hayward High" }, "geometry": { "type": "Point", "coordinates": [ -122.069923, 37.672677 ] } },
{ "type": "Feature", "properties": { "School": "Longwood Elementary" }, "geometry": { "type": "Point", "coordinates": [ -122.110106, 37.659052 ] } },
{ "type": "Feature", "properties": { "School": "Lorin A. Eden Elementary" }, "geometry": { "type": "Point", "coordinates": [ -122.100083, 37.624161 ] } },
{ "type": "Feature", "properties": { "School": "Martin Luther King, Jr. Middle" }, "geometry": { "type": "Point", "coordinates": [ -122.092547, 37.634611 ] } },
{ "type": "Feature", "properties": { "School": "Mt. Eden High" }, "geometry": { "type": "Point", "coordinates": [ -122.090566, 37.625313 ] } },
{ "type": "Feature", "properties": { "School": "Palma Ceia Elementary" }, "geometry": { "type": "Point", "coordinates": [ -122.085254, 37.627195 ] } },
{ "type": "Feature", "properties": { "School": "Park Elementary" }, "geometry": { "type": "Point", "coordinates": [ -122.094062, 37.652934 ] } },
{ "type": "Feature", "properties": { "School": "Ruus Elementary" }, "geometry": { "type": "Point", "coordinates": [ -122.073632, 37.627366 ] } },
{ "type": "Feature", "properties": { "School": "Schafer Park Elementary" }, "geometry": { "type": "Point", "coordinates": [ -122.087342, 37.642916 ] } },
{ "type": "Feature", "properties": { "School": "Southgate Elementary" }, "geometry": { "type": "Point", "coordinates": [ -122.094447, 37.639048 ] } },
{ "type": "Feature", "properties": { "School": "Special Education-Preschool-Laurel" }, "geometry": { "type": "Point", "coordinates": [ -122.069737, 37.687804 ] } },
{ "type": "Feature", "properties": { "School": "Stonebrae Elementary" }, "geometry": { "type": "Point", "coordinates": [ -122.020477, 37.654731 ] } },
{ "type": "Feature", "properties": { "School": "Tennyson High" }, "geometry": { "type": "Point", "coordinates": [ -122.065969, 37.642546 ] } },
{ "type": "Feature", "properties": { "School": "Treeview Elementary" }, "geometry": { "type": "Point", "coordinates": [ -122.036571, 37.624163 ] } },
{ "type": "Feature", "properties": { "School": "Tyrrell Elementary" }, "geometry": { "type": "Point", "coordinates": [ -122.075431, 37.637402 ] } },
{ "type": "Feature", "properties": { "School": "Winton Middle" }, "geometry": { "type": "Point", "coordinates": [ -122.090954, 37.660347 ] } },
{ "type": "Feature", "properties": { "School": "Altamont Creek Elementary" }, "geometry": { "type": "Point", "coordinates": [ -121.718383, 37.722319 ] } },
{ "type": "Feature", "properties": { "School": "Andrew N. Christensen Middle" }, "geometry": { "type": "Point", "coordinates": [ -121.728528, 37.726489 ] } },
{ "type": "Feature", "properties": { "School": "Arroyo Seco Elementary" }, "geometry": { "type": "Point", "coordinates": [ -121.728546, 37.68367 ] } },
{ "type": "Feature", "properties": { "School": "Del Valle Continuation High" }, "geometry": { "type": "Point", "coordinates": [ -121.76674, 37.678902 ] } },
{ "type": "Feature", "properties": { "School": "East Avenue Middle" }, "geometry": { "type": "Point", "coordinates": [ -121.750056, 37.679821 ] } },
{ "type": "Feature", "properties": { "School": "Emma C. Smith Elementary" }, "geometry": { "type": "Point", "coordinates": [ -121.796406, 37.667168 ] } },
{ "type": "Feature", "properties": { "School": "Granada High" }, "geometry": { "type": "Point", "coordinates": [ -121.789841, 37.675206 ] } },
{ "type": "Feature", "properties": { "School": "Jackson Avenue Elementary" }, "geometry": { "type": "Point", "coordinates": [ -121.742629, 37.684923 ] } },
{ "type": "Feature", "properties": { "School": "Joe Michell" }, "geometry": { "type": "Point", "coordinates": [ -121.783508, 37.669568 ] } },
{ "type": "Feature", "properties": { "School": "Junction K-8" }, "geometry": { "type": "Point", "coordinates": [ -121.767041, 37.687022 ] } },
{ "type": "Feature", "properties": { "School": "Lawrence Elementary" }, "geometry": { "type": "Point", "coordinates": [ -121.770575, 37.690107 ] } },
{ "type": "Feature", "properties": { "School": "Leo R. Croce Elementary" }, "geometry": { "type": "Point", "coordinates": [ -121.728331, 37.717069 ] } },
{ "type": "Feature", "properties": { "School": "Livermore Adult" }, "geometry": { "type": "Point", "coordinates": [ -121.740364, 37.676878 ] } },
{ "type": "Feature", "properties": { "School": "Livermore High" }, "geometry": { "type": "Point", "coordinates": [ -121.76173, 37.680526 ] } },
{ "type": "Feature", "properties": { "School": "Marylin Avenue Elementary" }, "geometry": { "type": "Point", "coordinates": [ -121.786037, 37.683866 ] } },
{ "type": "Feature", "properties": { "School": "Rancho Las Positas Elementary" }, "geometry": { "type": "Point", "coordinates": [ -121.804274, 37.688959 ] } },
{ "type": "Feature", "properties": { "School": "Sunset Elementary" }, "geometry": { "type": "Point", "coordinates": [ -121.77335, 37.662609 ] } },
{ "type": "Feature", "properties": { "School": "Vineyard Alternative" }, "geometry": { "type": "Point", "coordinates": [ -121.739878, 37.677172 ] } },
{ "type": "Feature", "properties": { "School": "William Mendenhall Middle" }, "geometry": { "type": "Point", "coordinates": [ -121.792215, 37.664505 ] } },
{ "type": "Feature", "properties": { "School": "Mission Valley ROCP" }, "geometry": { "type": "Point", "coordinates": [ -121.983478, 37.527997 ] } },
{ "type": "Feature", "properties": { "School": "Mountain House Elementary" }, "geometry": { "type": "Point", "coordinates": [ -121.577291, 37.787242 ] } },
{ "type": "Feature", "properties": { "School": "Alternative Learning Academy at Conley-Caraballo High" }, "geometry": { "type": "Point", "coordinates": [ -122.028759, 37.61521 ] } },
{ "type": "Feature", "properties": { "School": "Alvarado Elementary" }, "geometry": { "type": "Point", "coordinates": [ -122.076932, 37.595622 ] } },
{ "type": "Feature", "properties": { "School": "Cesar Chavez Middle" }, "geometry": { "type": "Point", "coordinates": [ -122.047354, 37.590189 ] } },
{ "type": "Feature", "properties": { "School": "Core Learning Academy at Conley-Caraballo High" }, "geometry": { "type": "Point", "coordinates": [ -122.028759, 37.61521 ] } },
{ "type": "Feature", "properties": { "School": "Decoto School for Independent Study" }, "geometry": { "type": "Point", "coordinates": [ -122.027106, 37.606993 ] } },
{ "type": "Feature", "properties": { "School": "Delaine Eastin Elementary" }, "geometry": { "type": "Point", "coordinates": [ -122.074837, 37.566838 ] } },
{ "type": "Feature", "properties": { "School": "Guy Jr. Emanuele Elementary" }, "geometry": { "type": "Point", "coordinates": [ -122.015926, 37.602005 ] } },
{ "type": "Feature", "properties": { "School": "Hillview Crest Elementary" }, "geometry": { "type": "Point", "coordinates": [ -122.036279, 37.614362 ] } },
{ "type": "Feature", "properties": { "School": "Itliong-Vera Cruz" }, "geometry": { "type": "Point", "coordinates": [ -122.080362, 37.591746 ] } },
{ "type": "Feature", "properties": { "School": "James Logan High" }, "geometry": { "type": "Point", "coordinates": [ -122.02604, 37.592494 ] } },
{ "type": "Feature", "properties": { "School": "New Haven Adult School at Decoto" }, "geometry": { "type": "Point", "coordinates": [ -122.027106, 37.606993 ] } },
{ "type": "Feature", "properties": { "School": "Pioneer Elementary" }, "geometry": { "type": "Point", "coordinates": [ -122.071677, 37.572076 ] } },
{ "type": "Feature", "properties": { "School": "Searles Elementary" }, "geometry": { "type": "Point", "coordinates": [ -122.027178, 37.596063 ] } },
{ "type": "Feature", "properties": { "School": "Tom Kitayama Elementary" }, "geometry": { "type": "Point", "coordinates": [ -122.049792, 37.601467 ] } },
{ "type": "Feature", "properties": { "School": "August Schilling Elementary" }, "geometry": { "type": "Point", "coordinates": [ -122.04613, 37.528261 ] } },
{ "type": "Feature", "properties": { "School": "Birch Grove Intermediate" }, "geometry": { "type": "Point", "coordinates": [ -122.022466, 37.533967 ] } },
{ "type": "Feature", "properties": { "School": "Birch Grove Primary" }, "geometry": { "type": "Point", "coordinates": [ -122.015082, 37.529248 ] } },
{ "type": "Feature", "properties": { "School": "Bridgepoint High" }, "geometry": { "type": "Point", "coordinates": [ -122.037799, 37.550558 ] } },
{ "type": "Feature", "properties": { "School": "Coyote Hills Elementary" }, "geometry": { "type": "Point", "coordinates": [ -122.042397, 37.538506 ] } },
{ "type": "Feature", "properties": { "School": "Crossroads High (Alternative)" }, "geometry": { "type": "Point", "coordinates": [ -122.037799, 37.550558 ] } },
{ "type": "Feature", "properties": { "School": "John F. Kennedy Elementary" }, "geometry": { "type": "Point", "coordinates": [ -122.042473, 37.551671 ] } },
{ "type": "Feature", "properties": { "School": "Lincoln Elementary" }, "geometry": { "type": "Point", "coordinates": [ -122.051954, 37.535889 ] } },
{ "type": "Feature", "properties": { "School": "Newark Adult" }, "geometry": { "type": "Point", "coordinates": [ -122.037938, 37.550611 ] } },
{ "type": "Feature", "properties": { "School": "Newark Junior High" }, "geometry": { "type": "Point", "coordinates": [ -122.036855, 37.542979 ] } },
{ "type": "Feature", "properties": { "School": "Newark Memorial High" }, "geometry": { "type": "Point", "coordinates": [ -122.001754, 37.522095 ] } },
{ "type": "Feature", "properties": { "School": "ACORN Woodland Elementary" }, "geometry": { "type": "Point", "coordinates": [ -122.186055, 37.752862 ] } },
{ "type": "Feature", "properties": { "School": "Allendale Elementary" }, "geometry": { "type": "Point", "coordinates": [ -122.20516, 37.788642 ] } },
{ "type": "Feature", "properties": { "School": "Bella Vista Elementary" }, "geometry": { "type": "Point", "coordinates": [ -122.237088, 37.800355 ] } },
{ "type": "Feature", "properties": { "School": "Bret Harte Middle" }, "geometry": { "type": "Point", "coordinates": [ -122.206522, 37.800579 ] } },
{ "type": "Feature", "properties": { "School": "Bridges @ Melrose Academy Elementary" }, "geometry": { "type": "Point", "coordinates": [ -122.206531, 37.767781 ] } },
{ "type": "Feature", "properties": { "School": "Brookfield Elementary" }, "geometry": { "type": "Point", "coordinates": [ -122.189002, 37.734711 ] } },
{ "type": "Feature", "properties": { "School": "Burbank Preschool Center" }, "geometry": { "type": "Point", "coordinates": [ -122.177625, 37.775669 ] } },
{ "type": "Feature", "properties": { "School": "Burckhalter Elementary" }, "geometry": { "type": "Point", "coordinates": [ -122.166791, 37.775578 ] } },
{ "type": "Feature", "properties": { "School": "Carl B. Munck Elementary" }, "geometry": { "type": "Point", "coordinates": [ -122.173828, 37.794753 ] } },
{ "type": "Feature", "properties": { "School": "Castlemont High" }, "geometry": { "type": "Point", "coordinates": [ -122.162913, 37.759536 ] } },
{ "type": "Feature", "properties": { "School": "Chabot Elementary" }, "geometry": { "type": "Point", "coordinates": [ -122.242938, 37.850664 ] } },
{ "type": "Feature", "properties": { "School": "Claremont Middle" }, "geometry": { "type": "Point", "coordinates": [ -122.251842, 37.845752 ] } },
{ "type": "Feature", "properties": { "School": "Cleveland Elementary" }, "geometry": { "type": "Point", "coordinates": [ -122.24405, 37.804369 ] } },
{ "type": "Feature", "properties": { "School": "Coliseum College Prep Academy" }, "geometry": { "type": "Point", "coordinates": [ -122.193376, 37.761975 ] } },
{ "type": "Feature", "properties": { "School": "Crocker Highlands Elementary" }, "geometry": { "type": "Point", "coordinates": [ -122.227385, 37.811364 ] } },
{ "type": "Feature", "properties": { "School": "Dewey Academy High" }, "geometry": { "type": "Point", "coordinates": [ -122.258174, 37.796705 ] } },
{ "type": "Feature", "properties": { "School": "East Oakland Pride Elementary" }, "geometry": { "type": "Point", "coordinates": [ -122.174458, 37.759065 ] } },
{ "type": "Feature", "properties": { "School": "Edna Brewer Middle" }, "geometry": { "type": "Point", "coordinates": [ -122.229545, 37.803854 ] } },
{ "type": "Feature", "properties": { "School": "Elmhurst United Middle" }, "geometry": { "type": "Point", "coordinates": [ -122.166097, 37.746372 ] } },
{ "type": "Feature", "properties": { "School": "Emerson Elementary" }, "geometry": { "type": "Point", "coordinates": [ -122.257306, 37.834628 ] } },
{ "type": "Feature", "properties": { "School": "EnCompass Academy Elementary" }, "geometry": { "type": "Point", "coordinates": [ -122.186055, 37.752862 ] } },
{ "type": "Feature", "properties": { "School": "Esperanza Elementary" }, "geometry": { "type": "Point", "coordinates": [ -122.173556, 37.737501 ] } },
{ "type": "Feature", "properties": { "School": "Franklin Elementary" }, "geometry": { "type": "Point", "coordinates": [ -122.248292, 37.793794 ] } },
{ "type": "Feature", "properties": { "School": "Fred T. Korematsu Discovery Academy Elementary" }, "geometry": { "type": "Point", "coordinates": [ -122.173556, 37.737501 ] } },
{ "type": "Feature", "properties": { "School": "Fremont High" }, "geometry": { "type": "Point", "coordinates": [ -122.209724, 37.7744 ] } },
{ "type": "Feature", "properties": { "School": "Frick United Academy of Language Middle" }, "geometry": { "type": "Point", "coordinates": [ -122.183499, 37.771513 ] } },
{ "type": "Feature", "properties": { "School": "Fruitvale Elementary" }, "geometry": { "type": "Point", "coordinates": [ -122.214071, 37.796228 ] } },
{ "type": "Feature", "properties": { "School": "Garfield Elementary" }, "geometry": { "type": "Point", "coordinates": [ -122.235788, 37.786684 ] } },
{ "type": "Feature", "properties": { "School": "Gateway to College High at Laney College" }, "geometry": { "type": "Point", "coordinates": [ -122.263779, 37.797155 ] } },
{ "type": "Feature", "properties": { "School": "Glenview Elementary" }, "geometry": { "type": "Point", "coordinates": [ -122.218775, 37.805477 ] } },
{ "type": "Feature", "properties": { "School": "Global Family Elementary" }, "geometry": { "type": "Point", "coordinates": [ -122.213259, 37.779349 ] } },
{ "type": "Feature", "properties": { "School": "Grass Valley Elementary" }, "geometry": { "type": "Point", "coordinates": [ -122.125853, 37.75301 ] } },
{ "type": "Feature", "properties": { "School": "Greenleaf" }, "geometry": { "type": "Point", "coordinates": [ -122.194849, 37.764386 ] } },
{ "type": "Feature", "properties": { "School": "Highland Community" }, "geometry": { "type": "Point", "coordinates": [ -122.178648, 37.752093 ] } },
{ "type": "Feature", "properties": { "School": "Hillcrest" }, "geometry": { "type": "Point", "coordinates": [ -122.232872, 37.840442 ] } },
{ "type": "Feature", "properties": { "School": "Home and Hospital Program" }, "geometry": { "type": "Point", "coordinates": [ -122.274383, 37.838068 ] } },
{ "type": "Feature", "properties": { "School": "Hoover Elementary" }, "geometry": { "type": "Point", "coordinates": [ -122.27445, 37.822947 ] } },
{ "type": "Feature", "properties": { "School": "Horace Mann Elementary" }, "geometry": { "type": "Point", "coordinates": [ -122.202455, 37.77355 ] } },
{ "type": "Feature", "properties": { "School": "Independent Study, Sojourner Truth" }, "geometry": { "type": "Point", "coordinates": [ -122.153532, 37.766765 ] } },
{ "type": "Feature", "properties": { "School": "Infant and Preschool Program" }, "geometry": { "type": "Point", "coordinates": [ -122.177222, 37.775283 ] } },
{ "type": "Feature", "properties": { "School": "International Community Elementary" }, "geometry": { "type": "Point", "coordinates": [ -122.230503, 37.78008 ] } },
{ "type": "Feature", "properties": { "School": "Joaquin Miller Elementary" }, "geometry": { "type": "Point", "coordinates": [ -122.201777, 37.818545 ] } },
{ "type": "Feature", "properties": { "School": "Kaiser Early Childhood Center" }, "geometry": { "type": "Point", "coordinates": [ -122.232263, 37.852602 ] } },
{ "type": "Feature", "properties": { "School": "La Escuelita" }, "geometry": { "type": "Point", "coordinates": [ -122.257279, 37.796004 ] } },
{ "type": "Feature", "properties": { "School": "Laurel Elementary" }, "geometry": { "type": "Point", "coordinates": [ -122.196644, 37.79307 ] } },
{ "type": "Feature", "properties": { "School": "LIFE Academy" }, "geometry": { "type": "Point", "coordinates": [ -122.216764, 37.784286 ] } },
{ "type": "Feature", "properties": { "School": "Lincoln Elementary" }, "geometry": { "type": "Point", "coordinates": [ -122.267151, 37.80011 ] } },
{ "type": "Feature", "properties": { "School": "Lockwood STEAM Academy Elementary" }, "geometry": { "type": "Point", "coordinates": [ -122.191887, 37.761424 ] } },
{ "type": "Feature", "properties": { "School": "Madison Park Academy 6-12" }, "geometry": { "type": "Point", "coordinates": [ -122.179182, 37.727775 ] } },
{ "type": "Feature", "properties": { "School": "Madison Park Academy Elementary" }, "geometry": { "type": "Point", "coordinates": [ -122.177498, 37.728041 ] } },
{ "type": "Feature", "properties": { "School": "Manzanita Community Elementary" }, "geometry": { "type": "Point", "coordinates": [ -122.223903, 37.792204 ] } },
{ "type": "Feature", "properties": { "School": "Manzanita SEED Elementary" }, "geometry": { "type": "Point", "coordinates": [ -122.223903, 37.792204 ] } },
{ "type": "Feature", "properties": { "School": "Markham Elementary" }, "geometry": { "type": "Point", "coordinates": [ -122.178873, 37.765296 ] } },
{ "type": "Feature", "properties": { "School": "Martin Luther King, Jr. Elementary" }, "geometry": { "type": "Point", "coordinates": [ -122.282984, 37.80568 ] } },
{ "type": "Feature", "properties": { "School": "McClymonds High" }, "geometry": { "type": "Point", "coordinates": [ -122.278634, 37.817864 ] } },
{ "type": "Feature", "properties": { "School": "Melrose Leadership Academy" }, "geometry": { "type": "Point", "coordinates": [ -122.197794, 37.780326 ] } },
{ "type": "Feature", "properties": { "School": "MetWest High" }, "geometry": { "type": "Point", "coordinates": [ -122.258236, 37.795107 ] } },
{ "type": "Feature", "properties": { "School": "Montclair Elementary" }, "geometry": { "type": "Point", "coordinates": [ -122.21281, 37.831092 ] } },
{ "type": "Feature", "properties": { "School": "Montera Middle" }, "geometry": { "type": "Point", "coordinates": [ -122.201604, 37.818785 ] } },
{ "type": "Feature", "properties": { "School": "Oakland Academy of Knowledge Elementary" }, "geometry": { "type": "Point", "coordinates": [ -122.151357, 37.76215 ] } },
{ "type": "Feature", "properties": { "School": "Oakland Adult and Career Education" }, "geometry": { "type": "Point", "coordinates": [ -122.278947, 37.818663 ] } },
{ "type": "Feature", "properties": { "School": "Oakland High" }, "geometry": { "type": "Point", "coordinates": [ -122.236526, 37.80529 ] } },
{ "type": "Feature", "properties": { "School": "Oakland International High" }, "geometry": { "type": "Point", "coordinates": [ -122.260187, 37.833534 ] } },
{ "type": "Feature", "properties": { "School": "Oakland Technical High" }, "geometry": { "type": "Point", "coordinates": [ -122.254136, 37.831725 ] } },
{ "type": "Feature", "properties": { "School": "Peralta Elementary" }, "geometry": { "type": "Point", "coordinates": [ -122.258811, 37.848963 ] } },
{ "type": "Feature", "properties": { "School": "Piedmont Avenue Elementary" }, "geometry": { "type": "Point", "coordinates": [ -122.248795, 37.829071 ] } },
{ "type": "Feature", "properties": { "School": "Prescott Elementary" }, "geometry": { "type": "Point", "coordinates": [ -122.298034, 37.80846 ] } },
{ "type": "Feature", "properties": { "School": "Ralph J. Bunche Continuation High" }, "geometry": { "type": "Point", "coordinates": [ -122.287845, 37.8132 ] } },
{ "type": "Feature", "properties": { "School": "Reach Academy Elementary" }, "geometry": { "type": "Point", "coordinates": [ -122.161365, 37.747088 ] } },
{ "type": "Feature", "properties": { "School": "Redwood Heights Elementary" }, "geometry": { "type": "Point", "coordinates": [ -122.186264, 37.797077 ] } },
{ "type": "Feature", "properties": { "School": "Roosevelt Middle" }, "geometry": { "type": "Point", "coordinates": [ -122.237937, 37.789693 ] } },
{ "type": "Feature", "properties": { "School": "Rudsdale Continuation High" }, "geometry": { "type": "Point", "coordinates": [ -122.154398, 37.766251 ] } },
{ "type": "Feature", "properties": { "School": "Sankofa United Elementary" }, "geometry": { "type": "Point", "coordinates": [ -122.264432, 37.847125 ] } },
{ "type": "Feature", "properties": { "School": "Sequoia Elementary" }, "geometry": { "type": "Point", "coordinates": [ -122.211417, 37.802314 ] } },
{ "type": "Feature", "properties": { "School": "Skyline High" }, "geometry": { "type": "Point", "coordinates": [ -122.163608, 37.797495 ] } },
{ "type": "Feature", "properties": { "School": "Street Academy Alternative High" }, "geometry": { "type": "Point", "coordinates": [ -122.265486, 37.817842 ] } },
{ "type": "Feature", "properties": { "School": "Think College Now Elementary" }, "geometry": { "type": "Point", "coordinates": [ -122.230503, 37.78008 ] } },
{ "type": "Feature", "properties": { "School": "Thornhill Elementary" }, "geometry": { "type": "Point", "coordinates": [ -122.211525, 37.836187 ] } },
{ "type": "Feature", "properties": { "School": "United for Success Academy Middle" }, "geometry": { "type": "Point", "coordinates": [ -122.216764, 37.784286 ] } },
{ "type": "Feature", "properties": { "School": "Urban Promise Academy Middle" }, "geometry": { "type": "Point", "coordinates": [ -122.22487, 37.782324 ] } },
{ "type": "Feature", "properties": { "School": "West Oakland Middle" }, "geometry": { "type": "Point", "coordinates": [ -122.28272, 37.80873 ] } },
{ "type": "Feature", "properties": { "School": "Westlake Middle" }, "geometry": { "type": "Point", "coordinates": [ -122.259916, 37.814592 ] } },
{ "type": "Feature", "properties": { "School": "Young Adult Program" }, "geometry": { "type": "Point", "coordinates": [ -122.274383, 37.838068 ] } },
{ "type": "Feature", "properties": { "School": "Beach Elementary" }, "geometry": { "type": "Point", "coordinates": [ -122.246142, 37.82381 ] } },
{ "type": "Feature", "properties": { "School": "Havens Elementary" }, "geometry": { "type": "Point", "coordinates": [ -122.232632, 37.825712 ] } },
{ "type": "Feature", "properties": { "School": "Millennium High Alternative" }, "geometry": { "type": "Point", "coordinates": [ -122.233937, 37.822804 ] } },
{ "type": "Feature", "properties": { "School": "Piedmont Adult Education" }, "geometry": { "type": "Point", "coordinates": [ -122.232509, 37.823393 ] } },
{ "type": "Feature", "properties": { "School": "Piedmont High" }, "geometry": { "type": "Point", "coordinates": [ -122.232904, 37.823674 ] } },
{ "type": "Feature", "properties": { "School": "Piedmont Middle" }, "geometry": { "type": "Point", "coordinates": [ -122.233544, 37.823132 ] } },
{ "type": "Feature", "properties": { "School": "Piedmont Preschool" }, "geometry": { "type": "Point", "coordinates": [ -122.233937, 37.822804 ] } },
{ "type": "Feature", "properties": { "School": "Wildwood Elementary" }, "geometry": { "type": "Point", "coordinates": [ -122.234953, 37.819701 ] } },
{ "type": "Feature", "properties": { "School": "Alisal Elementary" }, "geometry": { "type": "Point", "coordinates": [ -121.872074, 37.672366 ] } },
{ "type": "Feature", "properties": { "School": "Amador Valley High" }, "geometry": { "type": "Point", "coordinates": [ -121.873277, 37.668296 ] } },
{ "type": "Feature", "properties": { "School": "Donlon Elementary" }, "geometry": { "type": "Point", "coordinates": [ -121.909087, 37.684111 ] } },
{ "type": "Feature", "properties": { "School": "Fairlands Elementary" }, "geometry": { "type": "Point", "coordinates": [ -121.874338, 37.692602 ] } },
{ "type": "Feature", "properties": { "School": "Foothill High" }, "geometry": { "type": "Point", "coordinates": [ -121.919947, 37.671579 ] } },
{ "type": "Feature", "properties": { "School": "Harvest Park Middle" }, "geometry": { "type": "Point", "coordinates": [ -121.882686, 37.675555 ] } },
{ "type": "Feature", "properties": { "School": "Harvest Park Preschool Center" }, "geometry": { "type": "Point", "coordinates": [ -121.882686, 37.675555 ] } },
{ "type": "Feature", "properties": { "School": "Henry P. Mohr Elementary" }, "geometry": { "type": "Point", "coordinates": [ -121.860115, 37.692501 ] } },
{ "type": "Feature", "properties": { "School": "Lydiksen Elementary" }, "geometry": { "type": "Point", "coordinates": [ -121.921605, 37.680987 ] } },
{ "type": "Feature", "properties": { "School": "Phoebe Apperson Hearst Elementary" }, "geometry": { "type": "Point", "coordinates": [ -121.884329, 37.65245 ] } },
{ "type": "Feature", "properties": { "School": "Pleasanton Adult and Career Education" }, "geometry": { "type": "Point", "coordinates": [ -121.875171, 37.656147 ] } },
{ "type": "Feature", "properties": { "School": "Pleasanton Middle" }, "geometry": { "type": "Point", "coordinates": [ -121.881564, 37.65696 ] } },
{ "type": "Feature", "properties": { "School": "The Pleasanton Virtual Academy" }, "geometry": { "type": "Point", "coordinates": [ -121.874428, 37.656272 ] } },
{ "type": "Feature", "properties": { "School": "Thomas S. Hart Middle" }, "geometry": { "type": "Point", "coordinates": [ -121.898284, 37.685426 ] } },
{ "type": "Feature", "properties": { "School": "Valley View Elementary" }, "geometry": { "type": "Point", "coordinates": [ -121.863628, 37.659868 ] } },
{ "type": "Feature", "properties": { "School": "Village High" }, "geometry": { "type": "Point", "coordinates": [ -121.875146, 37.65519 ] } },
{ "type": "Feature", "properties": { "School": "Vintage Hills Elementary" }, "geometry": { "type": "Point", "coordinates": [ -121.855015, 37.655902 ] } },
{ "type": "Feature", "properties": { "School": "Walnut Grove Elementary" }, "geometry": { "type": "Point", "coordinates": [ -121.885377, 37.673219 ] } },
{ "type": "Feature", "properties": { "School": "Bancroft Middle" }, "geometry": { "type": "Point", "coordinates": [ -122.148631, 37.729173 ] } },
{ "type": "Feature", "properties": { "School": "Garfield Elementary" }, "geometry": { "type": "Point", "coordinates": [ -122.18606, 37.70401 ] } },
{ "type": "Feature", "properties": { "School": "Halkin Elementary" }, "geometry": { "type": "Point", "coordinates": [ -122.165736, 37.715169 ] } },
{ "type": "Feature", "properties": { "School": "Jefferson Elementary" }, "geometry": { "type": "Point", "coordinates": [ -122.135918, 37.712441 ] } },
{ "type": "Feature", "properties": { "School": "John Muir Middle" }, "geometry": { "type": "Point", "coordinates": [ -122.168177, 37.714146 ] } },
{ "type": "Feature", "properties": { "School": "Lincoln High (Continuation)" }, "geometry": { "type": "Point", "coordinates": [ -122.159875, 37.708315 ] } },
{ "type": "Feature", "properties": { "School": "Madison Elementary" }, "geometry": { "type": "Point", "coordinates": [ -122.160455, 37.69549 ] } },
{ "type": "Feature", "properties": { "School": "McKinley Elementary" }, "geometry": { "type": "Point", "coordinates": [ -122.147473, 37.718877 ] } },
{ "type": "Feature", "properties": { "School": "Monroe Elementary" }, "geometry": { "type": "Point", "coordinates": [ -122.146203, 37.698154 ] } },
{ "type": "Feature", "properties": { "School": "Roosevelt Elementary" }, "geometry": { "type": "Point", "coordinates": [ -122.14676, 37.736384 ] } },
{ "type": "Feature", "properties": { "School": "San Leandro Adult" }, "geometry": { "type": "Point", "coordinates": [ -122.170192, 37.714035 ] } },
{ "type": "Feature", "properties": { "School": "San Leandro High" }, "geometry": { "type": "Point", "coordinates": [ -122.142565, 37.717128 ] } },
{ "type": "Feature", "properties": { "School": "San Leandro Virtual Academy" }, "geometry": { "type": "Point", "coordinates": [ -122.159426, 37.708009 ] } },
{ "type": "Feature", "properties": { "School": "Washington Elementary" }, "geometry": { "type": "Point", "coordinates": [ -122.15676, 37.732427 ] } },
{ "type": "Feature", "properties": { "School": "Arroyo High" }, "geometry": { "type": "Point", "coordinates": [ -122.138363, 37.68081 ] } },
{ "type": "Feature", "properties": { "School": "Bay Elementary" }, "geometry": { "type": "Point", "coordinates": [ -122.147382, 37.671559 ] } },
{ "type": "Feature", "properties": { "School": "Bohannon Middle" }, "geometry": { "type": "Point", "coordinates": [ -122.128196, 37.6708 ] } },
{ "type": "Feature", "properties": { "School": "Colonial Acres Elementary" }, "geometry": { "type": "Point", "coordinates": [ -122.116162, 37.683564 ] } },
{ "type": "Feature", "properties": { "School": "Corvallis Elementary" }, "geometry": { "type": "Point", "coordinates": [ -122.152352, 37.696617 ] } },
{ "type": "Feature", "properties": { "School": "Dayton Elementary" }, "geometry": { "type": "Point", "coordinates": [ -122.157192, 37.687925 ] } },
{ "type": "Feature", "properties": { "School": "Del Rey Elementary" }, "geometry": { "type": "Point", "coordinates": [ -122.136572, 37.668638 ] } },
{ "type": "Feature", "properties": { "School": "East Bay Arts High" }, "geometry": { "type": "Point", "coordinates": [ -122.122524, 37.688571 ] } },
{ "type": "Feature", "properties": { "School": "Edendale Middle" }, "geometry": { "type": "Point", "coordinates": [ -122.118924, 37.69527 ] } },
{ "type": "Feature", "properties": { "School": "Grant Elementary" }, "geometry": { "type": "Point", "coordinates": [ -122.135046, 37.680371 ] } },
{ "type": "Feature", "properties": { "School": "Hesperian Elementary" }, "geometry": { "type": "Point", "coordinates": [ -122.125311, 37.694016 ] } },
{ "type": "Feature", "properties": { "School": "Hillside Elementary" }, "geometry": { "type": "Point", "coordinates": [ -122.117021, 37.701827 ] } },
{ "type": "Feature", "properties": { "School": "Lorenzo Manor Elementary" }, "geometry": { "type": "Point", "coordinates": [ -122.119468, 37.674293 ] } },
{ "type": "Feature", "properties": { "School": "Royal Sunset (Continuation)" }, "geometry": { "type": "Point", "coordinates": [ -122.115064, 37.668976 ] } },
{ "type": "Feature", "properties": { "School": "San Lorenzo Adult" }, "geometry": { "type": "Point", "coordinates": [ -122.12752, 37.670026 ] } },
{ "type": "Feature", "properties": { "School": "San Lorenzo High" }, "geometry": { "type": "Point", "coordinates": [ -122.122568, 37.686688 ] } },
{ "type": "Feature", "properties": { "School": "San Lorenzo Unified Preschool" }, "geometry": { "type": "Point", "coordinates": [ -122.114452, 37.669622 ] } },
{ "type": "Feature", "properties": { "School": "Washington Manor Middle" }, "geometry": { "type": "Point", "coordinates": [ -122.148127, 37.68842 ] } },
{ "type": "Feature", "properties": { "School": "Sunol Glen Elementary" }, "geometry": { "type": "Point", "coordinates": [ -121.885101, 37.593598 ] } },
{ "type": "Feature", "properties": { "School": "Tri-Valley ROP" }, "geometry": { "type": "Point", "coordinates": [ -121.77403, 37.669078 ] } },
{ "type": "Feature", "properties": { "School": "Alpine County Opportunity" }, "geometry": { "type": "Point", "coordinates": [ -119.806928, 38.766195 ] } },
{ "type": "Feature", "properties": { "School": "Alpine County Secondary Community Day" }, "geometry": { "type": "Point", "coordinates": [ -119.808854, 38.766357 ] } },
{ "type": "Feature", "properties": { "School": "Bear Valley Elementary" }, "geometry": { "type": "Point", "coordinates": [ -120.038956, 38.465862 ] } },
{ "type": "Feature", "properties": { "School": "Diamond Valley Elementary" }, "geometry": { "type": "Point", "coordinates": [ -119.807111, 38.766684 ] } },
{ "type": "Feature", "properties": { "School": "Amador County Special Education" }, "geometry": { "type": "Point", "coordinates": [ -120.777037, 38.352665 ] } },
{ "type": "Feature", "properties": { "School": "County Community" }, "geometry": { "type": "Point", "coordinates": [ -120.80822, 38.377473 ] } },
{ "type": "Feature", "properties": { "School": "Amador County ROP" }, "geometry": { "type": "Point", "coordinates": [ -120.777037, 38.352665 ] } },
{ "type": "Feature", "properties": { "School": "Amador Adult Education" }, "geometry": { "type": "Point", "coordinates": [ -120.808797, 38.377603 ] } },
{ "type": "Feature", "properties": { "School": "Amador High" }, "geometry": { "type": "Point", "coordinates": [ -120.809703, 38.398775 ] } },
{ "type": "Feature", "properties": { "School": "Argonaut High" }, "geometry": { "type": "Point", "coordinates": [ -120.791777, 38.353826 ] } },
{ "type": "Feature", "properties": { "School": "Independence High (Continuation)" }, "geometry": { "type": "Point", "coordinates": [ -120.808526, 38.377737 ] } },
{ "type": "Feature", "properties": { "School": "Ione Elementary" }, "geometry": { "type": "Point", "coordinates": [ -120.931623, 38.350283 ] } },
{ "type": "Feature", "properties": { "School": "Ione Junior High" }, "geometry": { "type": "Point", "coordinates": [ -120.777037, 38.352665 ] } },
{ "type": "Feature", "properties": { "School": "Jackson Elementary" }, "geometry": { "type": "Point", "coordinates": [ -120.773157, 38.351566 ] } },
{ "type": "Feature", "properties": { "School": "Jackson Junior High" }, "geometry": { "type": "Point", "coordinates": [ -120.77903, 38.35273 ] } },
{ "type": "Feature", "properties": { "School": "North Star Academy" }, "geometry": { "type": "Point", "coordinates": [ -120.808526, 38.377737 ] } },
{ "type": "Feature", "properties": { "School": "Pine Grove Elementary STEM Magnet" }, "geometry": { "type": "Point", "coordinates": [ -120.65362, 38.41307 ] } },
{ "type": "Feature", "properties": { "School": "Pioneer Magnet School for the Visual and Performing Arts" }, "geometry": { "type": "Point", "coordinates": [ -120.547001, 38.436259 ] } },
{ "type": "Feature", "properties": { "School": "Plymouth Elementary" }, "geometry": { "type": "Point", "coordinates": [ -120.851734, 38.480149 ] } },
{ "type": "Feature", "properties": { "School": "Sutter Creek Elementary" }, "geometry": { "type": "Point", "coordinates": [ -120.809932, 38.398764 ] } },
{ "type": "Feature", "properties": { "School": "Bangor Union Elementary" }, "geometry": { "type": "Point", "coordinates": [ -121.407404, 39.390904 ] } },
{ "type": "Feature", "properties": { "School": "Biggs Elementary" }, "geometry": { "type": "Point", "coordinates": [ -121.703802, 39.414988 ] } },
{ "type": "Feature", "properties": { "School": "Biggs High" }, "geometry": { "type": "Point", "coordinates": [ -121.706425, 39.416091 ] } },
{ "type": "Feature", "properties": { "School": "Richvale Elementary" }, "geometry": { "type": "Point", "coordinates": [ -121.749486, 39.494813 ] } },
{ "type": "Feature", "properties": { "School": "Achieve Charter High" }, "geometry": { "type": "Point", "coordinates": [ -121.816327, 39.761657 ] } },
{ "type": "Feature", "properties": { "School": "BASES Learning Center" }, "geometry": { "type": "Point", "coordinates": [ -121.546233, 39.51301 ] } },
{ "type": "Feature", "properties": { "School": "Butte County Community" }, "geometry": { "type": "Point", "coordinates": [ -121.835772, 39.728238 ] } },
{ "type": "Feature", "properties": { "School": "Butte County Special Education" }, "geometry": { "type": "Point", "coordinates": [ -121.556635, 39.512653 ] } },
{ "type": "Feature", "properties": { "School": "Table Mountain" }, "geometry": { "type": "Point", "coordinates": [ -121.569865, 39.52898 ] } },
{ "type": "Feature", "properties": { "School": "Butte County ROP" }, "geometry": { "type": "Point", "coordinates": [ -121.804384, 39.715532 ] } },
{ "type": "Feature", "properties": { "School": "Academy for Change" }, "geometry": { "type": "Point", "coordinates": [ -121.858386, 39.758522 ] } },
{ "type": "Feature", "properties": { "School": "Bidwell Junior High" }, "geometry": { "type": "Point", "coordinates": [ -121.838642, 39.758697 ] } },
{ "type": "Feature", "properties": { "School": "Center for Alternative Learning" }, "geometry": { "type": "Point", "coordinates": [ -121.858461, 39.758466 ] } },
{ "type": "Feature", "properties": { "School": "Chapman Elementary" }, "geometry": { "type": "Point", "coordinates": [ -121.815514, 39.726166 ] } },
{ "type": "Feature", "properties": { "School": "Chico High" }, "geometry": { "type": "Point", "coordinates": [ -121.844528, 39.735929 ] } },
{ "type": "Feature", "properties": { "School": "Chico Junior High" }, "geometry": { "type": "Point", "coordinates": [ -121.840296, 39.733406 ] } },
{ "type": "Feature", "properties": { "School": "Citrus Avenue Elementary" }, "geometry": { "type": "Point", "coordinates": [ -121.8524, 39.738519 ] } },
{ "type": "Feature", "properties": { "School": "Emma Wilson Elementary" }, "geometry": { "type": "Point", "coordinates": [ -121.870085, 39.734043 ] } },
{ "type": "Feature", "properties": { "School": "Fair View High (Continuation)" }, "geometry": { "type": "Point", "coordinates": [ -121.857852, 39.758826 ] } },
{ "type": "Feature", "properties": { "School": "Hooker Oak Elementary" }, "geometry": { "type": "Point", "coordinates": [ -121.83759, 39.743774 ] } },
{ "type": "Feature", "properties": { "School": "Little Chico Creek Elementary" }, "geometry": { "type": "Point", "coordinates": [ -121.798926, 39.73401 ] } },
{ "type": "Feature", "properties": { "School": "Marigold Elementary" }, "geometry": { "type": "Point", "coordinates": [ -121.815192, 39.760538 ] } },
{ "type": "Feature", "properties": { "School": "Marsh (Harry M.) Junior High" }, "geometry": { "type": "Point", "coordinates": [ -121.796307, 39.739563 ] } },
{ "type": "Feature", "properties": { "School": "McManus (John A.) Elementary" }, "geometry": { "type": "Point", "coordinates": [ -121.839627, 39.76092 ] } },
{ "type": "Feature", "properties": { "School": "Neal Dow Elementary" }, "geometry": { "type": "Point", "coordinates": [ -121.832903, 39.748937 ] } },
{ "type": "Feature", "properties": { "School": "Oak Bridge Academy" }, "geometry": { "type": "Point", "coordinates": [ -121.805547, 39.728939 ] } },
{ "type": "Feature", "properties": { "School": "Oakdale" }, "geometry": { "type": "Point", "coordinates": [ -121.858461, 39.758466 ] } },
{ "type": "Feature", "properties": { "School": "Parkview Elementary" }, "geometry": { "type": "Point", "coordinates": [ -121.812992, 39.741471 ] } },
{ "type": "Feature", "properties": { "School": "Pleasant Valley High" }, "geometry": { "type": "Point", "coordinates": [ -121.817136, 39.76116 ] } },
{ "type": "Feature", "properties": { "School": "Rosedale Elementary" }, "geometry": { "type": "Point", "coordinates": [ -121.851005, 39.723827 ] } },
{ "type": "Feature", "properties": { "School": "Shasta Elementary" }, "geometry": { "type": "Point", "coordinates": [ -121.883912, 39.780298 ] } },
{ "type": "Feature", "properties": { "School": "Sierra View Elementary" }, "geometry": { "type": "Point", "coordinates": [ -121.811554, 39.7502 ] } },
{ "type": "Feature", "properties": { "School": "Durham Elementary" }, "geometry": { "type": "Point", "coordinates": [ -121.803059, 39.646016 ] } },
{ "type": "Feature", "properties": { "School": "Durham High" }, "geometry": { "type": "Point", "coordinates": [ -121.803146, 39.646267 ] } },
{ "type": "Feature", "properties": { "School": "Durham Intermediate" }, "geometry": { "type": "Point", "coordinates": [ -121.803199, 39.64663 ] } },
{ "type": "Feature", "properties": { "School": "Concow Elementary" }, "geometry": { "type": "Point", "coordinates": [ -121.562842, 39.650509 ] } },
{ "type": "Feature", "properties": { "School": "Esperanza High (Continuation)" }, "geometry": { "type": "Point", "coordinates": [ -121.693454, 39.365221 ] } },
{ "type": "Feature", "properties": { "School": "Gridley High" }, "geometry": { "type": "Point", "coordinates": [ -121.684306, 39.367009 ] } },
{ "type": "Feature", "properties": { "School": "McKinley Elementary" }, "geometry": { "type": "Point", "coordinates": [ -121.698031, 39.363198 ] } },
{ "type": "Feature", "properties": { "School": "Sycamore Middle" }, "geometry": { "type": "Point", "coordinates": [ -121.698639, 39.363082 ] } },
{ "type": "Feature", "properties": { "School": "Wilson Elementary" }, "geometry": { "type": "Point", "coordinates": [ -121.691436, 39.363168 ] } },
{ "type": "Feature", "properties": { "School": "Manzanita Elementary" }, "geometry": { "type": "Point", "coordinates": [ -121.658631, 39.334408 ] } },
{ "type": "Feature", "properties": { "School": "Ishi Hills Middle" }, "geometry": { "type": "Point", "coordinates": [ -121.528277, 39.506033 ] } },
{ "type": "Feature", "properties": { "School": "Oakdale Heights Elementary" }, "geometry": { "type": "Point", "coordinates": [ -121.545138, 39.48036 ] } },
{ "type": "Feature", "properties": { "School": "Ophir Elementary" }, "geometry": { "type": "Point", "coordinates": [ -121.493912, 39.500163 ] } },
{ "type": "Feature", "properties": { "School": "Sierra Del Oro Inclusive Preschool" }, "geometry": { "type": "Point", "coordinates": [ -121.546319, 39.50041 ] } },
{ "type": "Feature", "properties": { "School": "Stanford Avenue Elementary" }, "geometry": { "type": "Point", "coordinates": [ -121.536045, 39.513249 ] } },
{ "type": "Feature", "properties": { "School": "The Studios @ Central" }, "geometry": { "type": "Point", "coordinates": [ -121.54051, 39.501865 ] } },
{ "type": "Feature", "properties": { "School": "Wyandotte Academy" }, "geometry": { "type": "Point", "coordinates": [ -121.542137, 39.500459 ] } },
{ "type": "Feature", "properties": { "School": "Las Plumas High" }, "geometry": { "type": "Point", "coordinates": [ -121.541009, 39.480408 ] } },
{ "type": "Feature", "properties": { "School": "Oroville Adult Education Center" }, "geometry": { "type": "Point", "coordinates": [ -121.544928, 39.509939 ] } },
{ "type": "Feature", "properties": { "School": "Oroville High" }, "geometry": { "type": "Point", "coordinates": [ -121.545915, 39.514321 ] } },
{ "type": "Feature", "properties": { "School": "Oroville High Community Day" }, "geometry": { "type": "Point", "coordinates": [ -121.56952, 39.522412 ] } },
{ "type": "Feature", "properties": { "School": "Prospect High (Continuation)" }, "geometry": { "type": "Point", "coordinates": [ -121.569609, 39.521372 ] } },
{ "type": "Feature", "properties": { "School": "Golden Hills Elementary" }, "geometry": { "type": "Point", "coordinates": [ -121.5343, 39.4735 ] } },
{ "type": "Feature", "properties": { "School": "Helen M. Wilcox Elementary" }, "geometry": { "type": "Point", "coordinates": [ -121.535822, 39.475394 ] } },
{ "type": "Feature", "properties": { "School": "Honcut" }, "geometry": { "type": "Point", "coordinates": [ -121.535267, 39.329059 ] } },
{ "type": "Feature", "properties": { "School": "Palermo" }, "geometry": { "type": "Point", "coordinates": [ -121.546121, 39.435873 ] } },
{ "type": "Feature", "properties": { "School": "Palermo Special Education Preschool" }, "geometry": { "type": "Point", "coordinates": [ -121.546133, 39.436182 ] } },
{ "type": "Feature", "properties": { "School": "Palermo Union Community Day (K-8)" }, "geometry": { "type": "Point", "coordinates": [ -121.546121, 39.435873 ] } },
{ "type": "Feature", "properties": { "School": "Cedarwood Elementary" }, "geometry": { "type": "Point", "coordinates": [ -121.597808, 39.853672 ] } },
{ "type": "Feature", "properties": { "School": "Honey Run Academy Secondary" }, "geometry": { "type": "Point", "coordinates": [ -121.609839, 39.752247 ] } },
{ "type": "Feature", "properties": { "School": "Paradise Adult" }, "geometry": { "type": "Point", "coordinates": [ -121.609839, 39.752247 ] } },
{ "type": "Feature", "properties": { "School": "Paradise eLearning Academy" }, "geometry": { "type": "Point", "coordinates": [ -121.612385, 39.761658 ] } },
{ "type": "Feature", "properties": { "School": "Paradise Elementary" }, "geometry": { "type": "Point", "coordinates": [ -121.611245, 39.752234 ] } },
{ "type": "Feature", "properties": { "School": "Paradise Junior High" }, "geometry": { "type": "Point", "coordinates": [ -121.613245, 39.750503 ] } },
{ "type": "Feature", "properties": { "School": "Paradise Ridge Elementary" }, "geometry": { "type": "Point", "coordinates": [ -121.612979, 39.750805 ] } },
{ "type": "Feature", "properties": { "School": "Paradise Senior High" }, "geometry": { "type": "Point", "coordinates": [ -121.613306, 39.760995 ] } },
{ "type": "Feature", "properties": { "School": "Paradise Unified Special Education" }, "geometry": { "type": "Point", "coordinates": [ -121.589381, 39.778701 ] } },
{ "type": "Feature", "properties": { "School": "Pine Ridge" }, "geometry": { "type": "Point", "coordinates": [ -121.603652, 39.813742 ] } },
{ "type": "Feature", "properties": { "School": "Ponderosa Elementary" }, "geometry": { "type": "Point", "coordinates": [ -121.579568, 39.775666 ] } },
{ "type": "Feature", "properties": { "School": "Ridgeview High (Continuation)" }, "geometry": { "type": "Point", "coordinates": [ -121.611976, 39.761969 ] } },
{ "type": "Feature", "properties": { "School": "Berry Creek Elementary" }, "geometry": { "type": "Point", "coordinates": [ -121.407982, 39.390845 ] } },
{ "type": "Feature", "properties": { "School": "Heritage Community Day" }, "geometry": { "type": "Point", "coordinates": [ -121.580524, 39.525334 ] } },
{ "type": "Feature", "properties": { "School": "Nelson Avenue Middle" }, "geometry": { "type": "Point", "coordinates": [ -121.578711, 39.525207 ] } },
{ "type": "Feature", "properties": { "School": "Plumas Avenue Elementary" }, "geometry": { "type": "Point", "coordinates": [ -121.574848, 39.519752 ] } },
{ "type": "Feature", "properties": { "School": "Poplar Avenue Elementary" }, "geometry": { "type": "Point", "coordinates": [ -121.611083, 39.513161 ] } },
{ "type": "Feature", "properties": { "School": "Sierra Avenue Elementary" }, "geometry": { "type": "Point", "coordinates": [ -121.588657, 39.508886 ] } },
{ "type": "Feature", "properties": { "School": "Siskiyou Avenue Elementary" }, "geometry": { "type": "Point", "coordinates": [ -121.578135, 39.520887 ] } },
{ "type": "Feature", "properties": { "School": "Bret Harte Union High" }, "geometry": { "type": "Point", "coordinates": [ -120.551827, 38.081079 ] } },
{ "type": "Feature", "properties": { "School": "Vallecito Continuation High" }, "geometry": { "type": "Point", "coordinates": [ -120.552008, 38.079472 ] } },
{ "type": "Feature", "properties": { "School": "Calaveras County Adult Education Consortium" }, "geometry": { "type": "Point", "coordinates": [ -120.555233, 38.080814 ] } },
{ "type": "Feature", "properties": { "School": "Calaveras County Special Education (SELPA)" }, "geometry": { "type": "Point", "coordinates": [ -120.553241, 38.078894 ] } },
{ "type": "Feature", "properties": { "School": "Calaveras River Academy" }, "geometry": { "type": "Point", "coordinates": [ -120.690932, 38.188474 ] } },
{ "type": "Feature", "properties": { "School": "Oakendell Community" }, "geometry": { "type": "Point", "coordinates": [ -120.655139, 38.231633 ] } },
{ "type": "Feature", "properties": { "School": "Calaveras High" }, "geometry": { "type": "Point", "coordinates": [ -120.683822, 38.200477 ] } },
{ "type": "Feature", "properties": { "School": "Calaveras Unified Alternative-Sierra Hills Education Center" }, "geometry": { "type": "Point", "coordinates": [ -120.686499, 38.212695 ] } },
{ "type": "Feature", "properties": { "School": "Gold Strike High" }, "geometry": { "type": "Point", "coordinates": [ -120.684564, 38.20013 ] } },
{ "type": "Feature", "properties": { "School": "Jenny Lind Elementary" }, "geometry": { "type": "Point", "coordinates": [ -120.868328, 38.133734 ] } },
{ "type": "Feature", "properties": { "School": "Mokelumne Hill Elementary" }, "geometry": { "type": "Point", "coordinates": [ -120.706179, 38.297389 ] } },
{ "type": "Feature", "properties": { "School": "San Andreas Elementary" }, "geometry": { "type": "Point", "coordinates": [ -120.672933, 38.195868 ] } },
{ "type": "Feature", "properties": { "School": "Toyon Middle" }, "geometry": { "type": "Point", "coordinates": [ -120.760829, 38.21449 ] } },
{ "type": "Feature", "properties": { "School": "Valley Springs Elementary" }, "geometry": { "type": "Point", "coordinates": [ -120.831826, 38.190398 ] } },
{ "type": "Feature", "properties": { "School": "West Point Elementary" }, "geometry": { "type": "Point", "coordinates": [ -120.525807, 38.398949 ] } },
{ "type": "Feature", "properties": { "School": "Copperopolis Elementary" }, "geometry": { "type": "Point", "coordinates": [ -120.642486, 37.982083 ] } },
{ "type": "Feature", "properties": { "School": "Learners, Empowered Academic Progress (LEAP)" }, "geometry": { "type": "Point", "coordinates": [ -120.550239, 38.072937 ] } },
{ "type": "Feature", "properties": { "School": "Mark Twain Elementary" }, "geometry": { "type": "Point", "coordinates": [ -120.550325, 38.075868 ] } },
{ "type": "Feature", "properties": { "School": "Albert A. Michelson Elementary" }, "geometry": { "type": "Point", "coordinates": [ -120.454669, 38.133908 ] } },
{ "type": "Feature", "properties": { "School": "Avery Middle" }, "geometry": { "type": "Point", "coordinates": [ -120.365483, 38.201889 ] } },
{ "type": "Feature", "properties": { "School": "Hazel Fischer Elementary" }, "geometry": { "type": "Point", "coordinates": [ -120.341522, 38.264353 ] } },
{ "type": "Feature", "properties": { "School": "Vallecito Independent Study (Alternative)" }, "geometry": { "type": "Point", "coordinates": [ -120.365608, 38.201914 ] } },
{ "type": "Feature", "properties": { "School": "Coastal Buttes Academy" }, "geometry": { "type": "Point", "coordinates": [ -122.136471, 39.160044 ] } },
{ "type": "Feature", "properties": { "School": "Colusa County Adult" }, "geometry": { "type": "Point", "coordinates": [ -122.136471, 39.160044 ] } },
{ "type": "Feature", "properties": { "School": "S. William Abel Academy" }, "geometry": { "type": "Point", "coordinates": [ -122.136471, 39.160044 ] } },
{ "type": "Feature", "properties": { "School": "Colusa Alternative High (Continuation)" }, "geometry": { "type": "Point", "coordinates": [ -122.020916, 39.199237 ] } },
{ "type": "Feature", "properties": { "School": "Colusa Alternative Home" }, "geometry": { "type": "Point", "coordinates": [ -122.016576, 39.210701 ] } },
{ "type": "Feature", "properties": { "School": "Colusa High" }, "geometry": { "type": "Point", "coordinates": [ -122.0207, 39.2008 ] } },
{ "type": "Feature", "properties": { "School": "George T. Egling Middle" }, "geometry": { "type": "Point", "coordinates": [ -122.013977, 39.210483 ] } },
{ "type": "Feature", "properties": { "School": "James M. Burchfield Primary" }, "geometry": { "type": "Point", "coordinates": [ -122.009076, 39.207522 ] } },
{ "type": "Feature", "properties": { "School": "Maxwell Elementary" }, "geometry": { "type": "Point", "coordinates": [ -122.195736, 39.279807 ] } },
{ "type": "Feature", "properties": { "School": "Maxwell Middle" }, "geometry": { "type": "Point", "coordinates": [ -122.193698, 39.279781 ] } },
{ "type": "Feature", "properties": { "School": "Maxwell Sr High" }, "geometry": { "type": "Point", "coordinates": [ -122.20354, 39.2762 ] } },
{ "type": "Feature", "properties": { "School": "Arbuckle Alternative High (Continuation)" }, "geometry": { "type": "Point", "coordinates": [ -122.055996, 39.00997 ] } },
{ "type": "Feature", "properties": { "School": "Arbuckle Elementary" }, "geometry": { "type": "Point", "coordinates": [ -122.059466, 39.016534 ] } },
{ "type": "Feature", "properties": { "School": "Grand Island Elementary" }, "geometry": { "type": "Point", "coordinates": [ -121.89739, 39.06957 ] } },
{ "type": "Feature", "properties": { "School": "Lloyd G. Johnson Junior High" }, "geometry": { "type": "Point", "coordinates": [ -122.055965, 39.00717 ] } },
{ "type": "Feature", "properties": { "School": "Pierce High" }, "geometry": { "type": "Point", "coordinates": [ -122.055999, 39.009385 ] } },
{ "type": "Feature", "properties": { "School": "Mid Valley High (Continuation)" }, "geometry": { "type": "Point", "coordinates": [ -122.155481, 39.15374 ] } },
{ "type": "Feature", "properties": { "School": "Williams Junior/Senior High" }, "geometry": { "type": "Point", "coordinates": [ -122.158413, 39.156417 ] } },
{ "type": "Feature", "properties": { "School": "Williams Primary Elementary" }, "geometry": { "type": "Point", "coordinates": [ -122.159597, 39.15253 ] } },
{ "type": "Feature", "properties": { "School": "Williams Upper Elementary" }, "geometry": { "type": "Point", "coordinates": [ -122.156271, 39.154905 ] } },
{ "type": "Feature", "properties": { "School": "Acalanes Adult Education Center" }, "geometry": { "type": "Point", "coordinates": [ -122.072513, 37.876678 ] } },
{ "type": "Feature", "properties": { "School": "Acalanes Center for Independent Study" }, "geometry": { "type": "Point", "coordinates": [ -122.074226, 37.877664 ] } },
{ "type": "Feature", "properties": { "School": "Acalanes High" }, "geometry": { "type": "Point", "coordinates": [ -122.099067, 37.904313 ] } },
{ "type": "Feature", "properties": { "School": "Campolindo High" }, "geometry": { "type": "Point", "coordinates": [ -122.124644, 37.863519 ] } },
{ "type": "Feature", "properties": { "School": "Las Lomas High" }, "geometry": { "type": "Point", "coordinates": [ -122.057411, 37.890139 ] } },
{ "type": "Feature", "properties": { "School": "Miramonte High" }, "geometry": { "type": "Point", "coordinates": [ -122.144381, 37.842329 ] } },
{ "type": "Feature", "properties": { "School": "Antioch Adult" }, "geometry": { "type": "Point", "coordinates": [ -121.816796, 38.01712 ] } },
{ "type": "Feature", "properties": { "School": "Antioch High" }, "geometry": { "type": "Point", "coordinates": [ -121.815958, 38.006279 ] } },
{ "type": "Feature", "properties": { "School": "Antioch Middle" }, "geometry": { "type": "Point", "coordinates": [ -121.810031, 38.005453 ] } },
{ "type": "Feature", "properties": { "School": "Belshaw Elementary" }, "geometry": { "type": "Point", "coordinates": [ -121.801357, 37.995363 ] } },
{ "type": "Feature", "properties": { "School": "Bidwell Continuation High" }, "geometry": { "type": "Point", "coordinates": [ -121.793363, 37.999879 ] } },
{ "type": "Feature", "properties": { "School": "Black Diamond Middle" }, "geometry": { "type": "Point", "coordinates": [ -121.766727, 37.97057 ] } },
{ "type": "Feature", "properties": { "School": "Carmen Dragon Elementary" }, "geometry": { "type": "Point", "coordinates": [ -121.752693, 37.968276 ] } },
{ "type": "Feature", "properties": { "School": "Dallas Ranch Middle" }, "geometry": { "type": "Point", "coordinates": [ -121.798614, 37.967182 ] } },
{ "type": "Feature", "properties": { "School": "Deer Valley High" }, "geometry": { "type": "Point", "coordinates": [ -121.779689, 37.96573 ] } },
{ "type": "Feature", "properties": { "School": "Diablo Vista Elementary" }, "geometry": { "type": "Point", "coordinates": [ -121.770407, 37.957726 ] } },
{ "type": "Feature", "properties": { "School": "Dozier-Libbey Medical High" }, "geometry": { "type": "Point", "coordinates": [ -121.76817, 37.94807 ] } },
{ "type": "Feature", "properties": { "School": "Fremont Elementary" }, "geometry": { "type": "Point", "coordinates": [ -121.812528, 38.007392 ] } },
{ "type": "Feature", "properties": { "School": "Grant Elementary" }, "geometry": { "type": "Point", "coordinates": [ -121.767438, 37.985644 ] } },
{ "type": "Feature", "properties": { "School": "Jack London Elementary" }, "geometry": { "type": "Point", "coordinates": [ -121.774104, 37.972258 ] } },
{ "type": "Feature", "properties": { "School": "Kimball Elementary" }, "geometry": { "type": "Point", "coordinates": [ -121.800845, 38.006877 ] } },
{ "type": "Feature", "properties": { "School": "Live Oak High (Continuation)" }, "geometry": { "type": "Point", "coordinates": [ -121.812601, 38.006065 ] } },
{ "type": "Feature", "properties": { "School": "Lone Tree Elementary" }, "geometry": { "type": "Point", "coordinates": [ -121.791939, 37.956286 ] } },
{ "type": "Feature", "properties": { "School": "Marsh Elementary" }, "geometry": { "type": "Point", "coordinates": [ -121.81508, 37.999713 ] } },
{ "type": "Feature", "properties": { "School": "Mission Elementary" }, "geometry": { "type": "Point", "coordinates": [ -121.83152, 37.997343 ] } },
{ "type": "Feature", "properties": { "School": "Muir (John) Elementary" }, "geometry": { "type": "Point", "coordinates": [ -121.794669, 37.976287 ] } },
{ "type": "Feature", "properties": { "School": "Orchard Park" }, "geometry": { "type": "Point", "coordinates": [ -121.741556, 38.000056 ] } },
{ "type": "Feature", "properties": { "School": "Park Middle" }, "geometry": { "type": "Point", "coordinates": [ -121.812766, 37.993577 ] } },
{ "type": "Feature", "properties": { "School": "Prospects High (Alternative)" }, "geometry": { "type": "Point", "coordinates": [ -121.816199, 38.016969 ] } },
{ "type": "Feature", "properties": { "School": "Sutter Elementary" }, "geometry": { "type": "Point", "coordinates": [ -121.811918, 37.985569 ] } },
{ "type": "Feature", "properties": { "School": "Thomas Gaines Virtual Academy" }, "geometry": { "type": "Point", "coordinates": [ -121.767941, 37.969463 ] } },
{ "type": "Feature", "properties": { "School": "Turner Elementary" }, "geometry": { "type": "Point", "coordinates": [ -121.850555, 38.003797 ] } },
{ "type": "Feature", "properties": { "School": "Adams (J. Douglas) Middle" }, "geometry": { "type": "Point", "coordinates": [ -121.755563, 37.918977 ] } },
{ "type": "Feature", "properties": { "School": "Brentwood Elementary" }, "geometry": { "type": "Point", "coordinates": [ -121.706784, 37.928421 ] } },
{ "type": "Feature", "properties": { "School": "Edna Hill Middle" }, "geometry": { "type": "Point", "coordinates": [ -121.691181, 37.931347 ] } },
{ "type": "Feature", "properties": { "School": "Garin Elementary" }, "geometry": { "type": "Point", "coordinates": [ -121.690318, 37.927778 ] } },
{ "type": "Feature", "properties": { "School": "Loma Vista Elementary" }, "geometry": { "type": "Point", "coordinates": [ -121.735728, 37.939885 ] } },
{ "type": "Feature", "properties": { "School": "Marsh Creek Elementary" }, "geometry": { "type": "Point", "coordinates": [ -121.70729, 37.953946 ] } },
{ "type": "Feature", "properties": { "School": "Mary Casey Black Elementary" }, "geometry": { "type": "Point", "coordinates": [ -121.687677, 37.948437 ] } },
{ "type": "Feature", "properties": { "School": "Pioneer Elementary" }, "geometry": { "type": "Point", "coordinates": [ -121.736925, 37.955203 ] } },
{ "type": "Feature", "properties": { "School": "R. Paul Krey Elementary" }, "geometry": { "type": "Point", "coordinates": [ -121.738366, 37.918568 ] } },
{ "type": "Feature", "properties": { "School": "Ron Nunn Elementary" }, "geometry": { "type": "Point", "coordinates": [ -121.729438, 37.929519 ] } },
{ "type": "Feature", "properties": { "School": "William B. Bristow Middle" }, "geometry": { "type": "Point", "coordinates": [ -121.714545, 37.937604 ] } },
{ "type": "Feature", "properties": { "School": "Byron Institute for Independent Study" }, "geometry": { "type": "Point", "coordinates": [ -121.619303, 37.90848 ] } },
{ "type": "Feature", "properties": { "School": "Discovery Bay Elementary" }, "geometry": { "type": "Point", "coordinates": [ -121.596678, 37.900961 ] } },
{ "type": "Feature", "properties": { "School": "Excelsior Middle" }, "geometry": { "type": "Point", "coordinates": [ -121.641493, 37.878893 ] } },
{ "type": "Feature", "properties": { "School": "Timber Point Elementary" }, "geometry": { "type": "Point", "coordinates": [ -121.619195, 37.908861 ] } },
{ "type": "Feature", "properties": { "School": "Canyon Elementary" }, "geometry": { "type": "Point", "coordinates": [ -122.16623, 37.830427 ] } },
{ "type": "Feature", "properties": { "School": "CCCOE Special Education Programs" }, "geometry": { "type": "Point", "coordinates": [ -121.850555, 38.003797 ] } },
{ "type": "Feature", "properties": { "School": "Central County Special Education Programs" }, "geometry": { "type": "Point", "coordinates": [ -122.019902, 37.857903 ] } },
{ "type": "Feature", "properties": { "School": "Contra Costa Adult" }, "geometry": { "type": "Point", "coordinates": [ -122.353769, 37.994405 ] } },
{ "type": "Feature", "properties": { "School": "Floyd I. Marchus" }, "geometry": { "type": "Point", "coordinates": [ -122.047193, 37.995708 ] } },
{ "type": "Feature", "properties": { "School": "Mt. McKinley" }, "geometry": { "type": "Point", "coordinates": [ -122.087439, 37.988924 ] } },
{ "type": "Feature", "properties": { "School": "Contra Costa County ROP" }, "geometry": { "type": "Point", "coordinates": [ -122.069911, 37.935382 ] } },
{ "type": "Feature", "properties": { "School": "Carquinez Middle" }, "geometry": { "type": "Point", "coordinates": [ -122.222242, 38.052377 ] } },
{ "type": "Feature", "properties": { "School": "John Swett High" }, "geometry": { "type": "Point", "coordinates": [ -122.221052, 38.052381 ] } },
{ "type": "Feature", "properties": { "School": "Rodeo Hills Elementary" }, "geometry": { "type": "Point", "coordinates": [ -122.269638, 38.029908 ] } },
{ "type": "Feature", "properties": { "School": "Willow High" }, "geometry": { "type": "Point", "coordinates": [ -122.221735, 38.052867 ] } },
{ "type": "Feature", "properties": { "School": "Knightsen Elementary" }, "geometry": { "type": "Point", "coordinates": [ -121.661695, 37.968769 ] } },
{ "type": "Feature", "properties": { "School": "Old River Elementary" }, "geometry": { "type": "Point", "coordinates": [ -121.620505, 37.935671 ] } },
{ "type": "Feature", "properties": { "School": "Burton Valley Elementary" }, "geometry": { "type": "Point", "coordinates": [ -122.092337, 37.863434 ] } },
{ "type": "Feature", "properties": { "School": "Happy Valley Elementary" }, "geometry": { "type": "Point", "coordinates": [ -122.141669, 37.90513 ] } },
{ "type": "Feature", "properties": { "School": "Lafayette Elementary" }, "geometry": { "type": "Point", "coordinates": [ -122.118253, 37.888756 ] } },
{ "type": "Feature", "properties": { "School": "M. H. Stanley Middle" }, "geometry": { "type": "Point", "coordinates": [ -122.113182, 37.887417 ] } },
{ "type": "Feature", "properties": { "School": "Springhill Elementary" }, "geometry": { "type": "Point", "coordinates": [ -122.102488, 37.908759 ] } },
{ "type": "Feature", "properties": { "School": "Freedom High" }, "geometry": { "type": "Point", "coordinates": [ -121.715755, 37.969082 ] } },
{ "type": "Feature", "properties": { "School": "Heritage High" }, "geometry": { "type": "Point", "coordinates": [ -121.752512, 37.925177 ] } },
{ "type": "Feature", "properties": { "School": "Independence High" }, "geometry": { "type": "Point", "coordinates": [ -121.695961, 37.935661 ] } },
{ "type": "Feature", "properties": { "School": "La Paloma High (Continuation)" }, "geometry": { "type": "Point", "coordinates": [ -121.681678, 37.919921 ] } },
{ "type": "Feature", "properties": { "School": "Liberty Adult Education" }, "geometry": { "type": "Point", "coordinates": [ -121.696999, 37.935506 ] } },
{ "type": "Feature", "properties": { "School": "Liberty High" }, "geometry": { "type": "Point", "coordinates": [ -121.695103, 37.934897 ] } },
{ "type": "Feature", "properties": { "School": "Alhambra Senior High" }, "geometry": { "type": "Point", "coordinates": [ -122.133716, 38.002496 ] } },
{ "type": "Feature", "properties": { "School": "Briones (Alternative)" }, "geometry": { "type": "Point", "coordinates": [ -122.132028, 38.014789 ] } },
{ "type": "Feature", "properties": { "School": "John Muir Elementary" }, "geometry": { "type": "Point", "coordinates": [ -122.119351, 37.998922 ] } },
{ "type": "Feature", "properties": { "School": "John Swett Elementary" }, "geometry": { "type": "Point", "coordinates": [ -122.125335, 37.982299 ] } },
{ "type": "Feature", "properties": { "School": "Las Juntas Elementary" }, "geometry": { "type": "Point", "coordinates": [ -122.093431, 38.007486 ] } },
{ "type": "Feature", "properties": { "School": "Martinez Adult High" }, "geometry": { "type": "Point", "coordinates": [ -122.13094, 38.000497 ] } },
{ "type": "Feature", "properties": { "School": "Martinez Early Intervention Preschool Program (MEIPP)" }, "geometry": { "type": "Point", "coordinates": [ -122.131804, 38.014885 ] } },
{ "type": "Feature", "properties": { "School": "Martinez Junior High" }, "geometry": { "type": "Point", "coordinates": [ -122.134035, 38.017899 ] } },
{ "type": "Feature", "properties": { "School": "Morello Park Elementary" }, "geometry": { "type": "Point", "coordinates": [ -122.099289, 38.000798 ] } },
{ "type": "Feature", "properties": { "School": "Vicente Martinez High" }, "geometry": { "type": "Point", "coordinates": [ -122.132269, 38.014646 ] } },
{ "type": "Feature", "properties": { "School": "Camino Pablo Elementary" }, "geometry": { "type": "Point", "coordinates": [ -122.124561, 37.822952 ] } },
{ "type": "Feature", "properties": { "School": "Donald L. Rheem Elementary" }, "geometry": { "type": "Point", "coordinates": [ -122.133031, 37.857612 ] } },
{ "type": "Feature", "properties": { "School": "Joaquin Moraga Intermediate" }, "geometry": { "type": "Point", "coordinates": [ -122.130633, 37.826924 ] } },
{ "type": "Feature", "properties": { "School": "Los Perales Elementary" }, "geometry": { "type": "Point", "coordinates": [ -122.138261, 37.847616 ] } },
{ "type": "Feature", "properties": { "School": "Ayers Elementary" }, "geometry": { "type": "Point", "coordinates": [ -121.959952, 37.96622 ] } },
{ "type": "Feature", "properties": { "School": "Bancroft Elementary" }, "geometry": { "type": "Point", "coordinates": [ -122.036734, 37.929088 ] } },
{ "type": "Feature", "properties": { "School": "Bel Air Elementary" }, "geometry": { "type": "Point", "coordinates": [ -121.938842, 38.019411 ] } },
{ "type": "Feature", "properties": { "School": "Cambridge Elementary" }, "geometry": { "type": "Point", "coordinates": [ -122.044562, 37.954809 ] } },
{ "type": "Feature", "properties": { "School": "College Park High" }, "geometry": { "type": "Point", "coordinates": [ -122.071853, 37.965869 ] } },
{ "type": "Feature", "properties": { "School": "Concord High" }, "geometry": { "type": "Point", "coordinates": [ -121.988602, 37.976475 ] } },
{ "type": "Feature", "properties": { "School": "Crossroads High" }, "geometry": { "type": "Point", "coordinates": [ -122.027795, 37.979488 ] } },
{ "type": "Feature", "properties": { "School": "Delta View Elementary" }, "geometry": { "type": "Point", "coordinates": [ -121.967731, 38.011265 ] } },
{ "type": "Feature", "properties": { "School": "Diablo Community Day" }, "geometry": { "type": "Point", "coordinates": [ -122.044341, 37.944889 ] } },
{ "type": "Feature", "properties": { "School": "Diablo View Middle" }, "geometry": { "type": "Point", "coordinates": [ -121.923035, 37.932145 ] } },
{ "type": "Feature", "properties": { "School": "El Dorado Middle" }, "geometry": { "type": "Point", "coordinates": [ -121.992584, 37.976026 ] } },
{ "type": "Feature", "properties": { "School": "El Monte Elementary" }, "geometry": { "type": "Point", "coordinates": [ -122.012595, 37.968484 ] } },
{ "type": "Feature", "properties": { "School": "Fair Oaks Elementary" }, "geometry": { "type": "Point", "coordinates": [ -122.05058, 37.944086 ] } },
{ "type": "Feature", "properties": { "School": "Foothill Middle" }, "geometry": { "type": "Point", "coordinates": [ -122.016273, 37.920327 ] } },
{ "type": "Feature", "properties": { "School": "Glenbrook Academy" }, "geometry": { "type": "Point", "coordinates": [ -122.035799, 37.995602 ] } },
{ "type": "Feature", "properties": { "School": "Gregory Gardens Elementary" }, "geometry": { "type": "Point", "coordinates": [ -122.066835, 37.959933 ] } },
{ "type": "Feature", "properties": { "School": "Hidden Valley Elementary" }, "geometry": { "type": "Point", "coordinates": [ -122.088154, 37.982528 ] } },
{ "type": "Feature", "properties": { "School": "Highlands Elementary" }, "geometry": { "type": "Point", "coordinates": [ -121.956164, 37.941843 ] } },
{ "type": "Feature", "properties": { "School": "Holbrook Language Academy" }, "geometry": { "type": "Point", "coordinates": [ -122.026994, 37.993326 ] } },
{ "type": "Feature", "properties": { "School": "Horizons School: Independent Study" }, "geometry": { "type": "Point", "coordinates": [ -122.068129, 37.935713 ] } },
{ "type": "Feature", "properties": { "School": "MDUSD Preschools" }, "geometry": { "type": "Point", "coordinates": [ -122.068165, 37.960653 ] } },
{ "type": "Feature", "properties": { "School": "Meadow Homes Elementary" }, "geometry": { "type": "Point", "coordinates": [ -122.038879, 37.965928 ] } },
{ "type": "Feature", "properties": { "School": "Monte Gardens Elementary" }, "geometry": { "type": "Point", "coordinates": [ -122.005247, 37.988217 ] } },
{ "type": "Feature", "properties": { "School": "Mountain View Elementary" }, "geometry": { "type": "Point", "coordinates": [ -121.980322, 37.968663 ] } },
{ "type": "Feature", "properties": { "School": "Mt. Diablo Adult Education" }, "geometry": { "type": "Point", "coordinates": [ -122.026798, 37.968807 ] } },
{ "type": "Feature", "properties": { "School": "Mt. Diablo Elementary" }, "geometry": { "type": "Point", "coordinates": [ -121.940184, 37.942567 ] } },
{ "type": "Feature", "properties": { "School": "Mt. Diablo High" }, "geometry": { "type": "Point", "coordinates": [ -122.036315, 37.98288 ] } },
{ "type": "Feature", "properties": { "School": "Northgate High" }, "geometry": { "type": "Point", "coordinates": [ -122.006989, 37.910096 ] } },
{ "type": "Feature", "properties": { "School": "Oak Grove Middle" }, "geometry": { "type": "Point", "coordinates": [ -122.034977, 37.939851 ] } },
{ "type": "Feature", "properties": { "School": "Olympic Continuation High" }, "geometry": { "type": "Point", "coordinates": [ -122.028094, 37.980697 ] } },
{ "type": "Feature", "properties": { "School": "Pine Hollow Middle" }, "geometry": { "type": "Point", "coordinates": [ -121.954727, 37.941261 ] } },
{ "type": "Feature", "properties": { "School": "Pleasant Hill Education Center" }, "geometry": { "type": "Point", "coordinates": [ -122.068129, 37.935713 ] } },
{ "type": "Feature", "properties": { "School": "Pleasant Hill Elementary" }, "geometry": { "type": "Point", "coordinates": [ -122.082597, 37.933651 ] } },
{ "type": "Feature", "properties": { "School": "Pleasant Hill Middle" }, "geometry": { "type": "Point", "coordinates": [ -122.068129, 37.935713 ] } },
{ "type": "Feature", "properties": { "School": "Prospect High (Continuation)" }, "geometry": { "type": "Point", "coordinates": [ -122.06813, 37.935744 ] } },
{ "type": "Feature", "properties": { "School": "Rio Vista Elementary" }, "geometry": { "type": "Point", "coordinates": [ -121.974718, 38.033972 ] } },
{ "type": "Feature", "properties": { "School": "Riverview Middle" }, "geometry": { "type": "Point", "coordinates": [ -121.965512, 38.033976 ] } },
{ "type": "Feature", "properties": { "School": "Sequoia Elementary" }, "geometry": { "type": "Point", "coordinates": [ -122.066903, 37.94348 ] } },
{ "type": "Feature", "properties": { "School": "Sequoia Middle" }, "geometry": { "type": "Point", "coordinates": [ -122.067939, 37.943481 ] } },
{ "type": "Feature", "properties": { "School": "Shore Acres Elementary" }, "geometry": { "type": "Point", "coordinates": [ -121.970374, 38.03619 ] } },
{ "type": "Feature", "properties": { "School": "Silverwood Elementary" }, "geometry": { "type": "Point", "coordinates": [ -121.971709, 37.962573 ] } },
{ "type": "Feature", "properties": { "School": "Strandwood Elementary" }, "geometry": { "type": "Point", "coordinates": [ -122.075856, 37.950241 ] } },
{ "type": "Feature", "properties": { "School": "Sun Terrace Elementary" }, "geometry": { "type": "Point", "coordinates": [ -122.03012, 38.000203 ] } },
{ "type": "Feature", "properties": { "School": "Sunrise (Special Education)" }, "geometry": { "type": "Point", "coordinates": [ -122.002959, 37.985514 ] } },
{ "type": "Feature", "properties": { "School": "Valhalla Elementary" }, "geometry": { "type": "Point", "coordinates": [ -122.080779, 37.966593 ] } },
{ "type": "Feature", "properties": { "School": "Valle Verde Elementary" }, "geometry": { "type": "Point", "coordinates": [ -122.014903, 37.934297 ] } },
{ "type": "Feature", "properties": { "School": "Valley View Middle" }, "geometry": { "type": "Point", "coordinates": [ -122.07186, 37.965869 ] } },
{ "type": "Feature", "properties": { "School": "Walnut Acres Elementary" }, "geometry": { "type": "Point", "coordinates": [ -122.020319, 37.917636 ] } },
{ "type": "Feature", "properties": { "School": "Westwood Elementary" }, "geometry": { "type": "Point", "coordinates": [ -121.991822, 37.976734 ] } },
{ "type": "Feature", "properties": { "School": "Woodside Elementary" }, "geometry": { "type": "Point", "coordinates": [ -122.017567, 37.940377 ] } },
{ "type": "Feature", "properties": { "School": "Wren Avenue Elementary" }, "geometry": { "type": "Point", "coordinates": [ -122.016361, 37.980245 ] } },
{ "type": "Feature", "properties": { "School": "Ygnacio Valley Elementary" }, "geometry": { "type": "Point", "coordinates": [ -122.028304, 37.950182 ] } },
{ "type": "Feature", "properties": { "School": "Ygnacio Valley High" }, "geometry": { "type": "Point", "coordinates": [ -122.023256, 37.936674 ] } },
{ "type": "Feature", "properties": { "School": "Almond Grove Elementary" }, "geometry": { "type": "Point", "coordinates": [ -121.725288, 37.974834 ] } },
{ "type": "Feature", "properties": { "School": "Delta Vista Middle" }, "geometry": { "type": "Point", "coordinates": [ -121.689543, 37.993624 ] } },
{ "type": "Feature", "properties": { "School": "Gehringer Elementary" }, "geometry": { "type": "Point", "coordinates": [ -121.698745, 37.976086 ] } },
{ "type": "Feature", "properties": { "School": "Iron House Elementary" }, "geometry": { "type": "Point", "coordinates": [ -121.689556, 37.993042 ] } },
{ "type": "Feature", "properties": { "School": "Laurel Elementary" }, "geometry": { "type": "Point", "coordinates": [ -121.71741, 37.983197 ] } },
{ "type": "Feature", "properties": { "School": "O'Hara Park Middle" }, "geometry": { "type": "Point", "coordinates": [ -121.713957, 37.989192 ] } },
{ "type": "Feature", "properties": { "School": "Oakley Elementary" }, "geometry": { "type": "Point", "coordinates": [ -121.716175, 37.995067 ] } },
{ "type": "Feature", "properties": { "School": "Summer Lake Elementary" }, "geometry": { "type": "Point", "coordinates": [ -121.628479, 37.987876 ] } },
{ "type": "Feature", "properties": { "School": "Vintage Parkway Elementary" }, "geometry": { "type": "Point", "coordinates": [ -121.719691, 38.004214 ] } },
{ "type": "Feature", "properties": { "School": "Del Rey Elementary" }, "geometry": { "type": "Point", "coordinates": [ -122.153957, 37.846605 ] } },
{ "type": "Feature", "properties": { "School": "Glorietta Elementary" }, "geometry": { "type": "Point", "coordinates": [ -122.162405, 37.872372 ] } },
{ "type": "Feature", "properties": { "School": "Orinda Intermediate" }, "geometry": { "type": "Point", "coordinates": [ -122.145443, 37.851205 ] } },
{ "type": "Feature", "properties": { "School": "Sleepy Hollow Elementary" }, "geometry": { "type": "Point", "coordinates": [ -122.198765, 37.908065 ] } },
{ "type": "Feature", "properties": { "School": "Wagner Ranch Elementary" }, "geometry": { "type": "Point", "coordinates": [ -122.208557, 37.897925 ] } },
{ "type": "Feature", "properties": { "School": "Black Diamond High (Continuation)" }, "geometry": { "type": "Point", "coordinates": [ -121.877742, 38.003966 ] } },
{ "type": "Feature", "properties": { "School": "Foothill Elementary" }, "geometry": { "type": "Point", "coordinates": [ -121.875254, 37.996002 ] } },
{ "type": "Feature", "properties": { "School": "Heights Elementary" }, "geometry": { "type": "Point", "coordinates": [ -122.021816, 37.984035 ] } },
{ "type": "Feature", "properties": { "School": "Highlands Elementary" }, "geometry": { "type": "Point", "coordinates": [ -121.886968, 37.99867 ] } },
{ "type": "Feature", "properties": { "School": "Hillview Junior High" }, "geometry": { "type": "Point", "coordinates": [ -121.888382, 38.002377 ] } },
{ "type": "Feature", "properties": { "School": "Los Medanos Elementary" }, "geometry": { "type": "Point", "coordinates": [ -121.900461, 38.016486 ] } },
{ "type": "Feature", "properties": { "School": "Marina Vista Elementary" }, "geometry": { "type": "Point", "coordinates": [ -121.885241, 38.029515 ] } },
{ "type": "Feature", "properties": { "School": "Martin Luther King Jr. Junior High" }, "geometry": { "type": "Point", "coordinates": [ -121.869713, 38.015168 ] } },
{ "type": "Feature", "properties": { "School": "Parkside Elementary" }, "geometry": { "type": "Point", "coordinates": [ -121.899654, 38.022918 ] } },
{ "type": "Feature", "properties": { "School": "Pittsburg Adult Education Center" }, "geometry": { "type": "Point", "coordinates": [ -121.886313, 38.028159 ] } },
{ "type": "Feature", "properties": { "School": "Pittsburg Senior High" }, "geometry": { "type": "Point", "coordinates": [ -121.881372, 38.019548 ] } },
{ "type": "Feature", "properties": { "School": "Rancho Medanos Junior High" }, "geometry": { "type": "Point", "coordinates": [ -121.913244, 38.015377 ] } },
{ "type": "Feature", "properties": { "School": "Stoneman Elementary" },